[{"name": "Sydney", "post_code": 2000, "state": "NSW", "locality": "Council of the City of Sydney", "latitude": -33.8688197, "longitude": 151.2092955}, {"name": "Abbotsbury", "locality": "Fairfield City Council", "state": "NSW", "post_code": 2176, "latitude": -33.875, "longitude": 150.862}, {"name": "Abbotsford", "locality": "City of Canada Bay Council", "state": "NSW", "post_code": 2046, "latitude": -33.85215, "longitude": 151.12726}, {"name": "Acacia Gardens", "locality": "City of Blacktown", "state": "NSW", "post_code": 2763, "latitude": -33.7322, "longitude": 150.917}, {"name": "Agnes Banks", "state": "NSW", "post_code": 2753, "latitude": -33.61529, "longitude": 150.71616}, {"name": "Airds", "locality": "Campbelltown City Council", "state": "NSW", "post_code": 2560, "latitude": -34.0916, "longitude": 150.8249}, {"name": "Alexandria", "locality": "Council of the City of Sydney", "state": "NSW", "post_code": 2015, "latitude": -33.9080273, "longitude": 151.1902576}, {"name": "Alfords Point", "locality": "Sutherland Shire", "state": "NSW", "post_code": 2234, "latitude": -33.9848, "longitude": 151.02142}, {"name": "Allambie Heights", "locality": "Northern Beaches Council", "state": "NSW", "post_code": 2100, "latitude": -33.7624, "longitude": 151.25}, {"name": "Allawah", "locality": "Kogarah City Council", "state": "NSW", "post_code": 2218, "latitude": -33.9749, "longitude": 151.1167}, {"name": "Ambarvale", "locality": "Campbelltown City Council", "state": "NSW", "post_code": 2560, "latitude": -34.08333, "longitude": 150.80067}, {"name": "Annandale", "state": "NSW", "post_code": 2038, "latitude": -33.8814, "longitude": 151.1707}, {"name": "Annangrove", "locality": "The Hills Shire", "state": "NSW", "post_code": 2156, "latitude": -33.65255, "longitude": 150.94096}, {"name": "Arcadia", "locality": "The Council of the Shire of Hornsby", "state": "NSW", "post_code": 2159, "latitude": -33.62429, "longitude": 151.04455}, {"name": "Arncliffe", "locality": "Bayside Council", "state": "NSW", "post_code": 2205, "latitude": -33.93915010000001, "longitude": 151.1478116}, {"name": "Arndell Park", "locality": "City of Blacktown", "state": "NSW", "post_code": 2148, "latitude": -33.79, "longitude": 150.876}, {"name": "Artarmon", "locality": "City of Willoughby", "state": "NSW", "post_code": 2064, "latitude": -33.8093311, "longitude": 151.185647}, {"name": "Ashbury", "state": "NSW", "post_code": 2193, "latitude": -33.8997098, "longitude": 151.1199309}, {"name": "Ashcroft", "locality": "City of Liverpool", "state": "NSW", "post_code": 2168, "latitude": -33.91447, "longitude": 150.8987392}, {"name": "Ashfield", "locality": "Inner West Council", "state": "NSW", "post_code": 2131, "latitude": -33.8889, "longitude": 151.1249}, {"name": "Asquith", "locality": "The Council of the Shire of Hornsby", "state": "NSW", "post_code": 2077, "latitude": -33.689, "longitude": 151.105}, {"name": "Auburn", "locality": "Cumberland Council", "state": "NSW", "post_code": 2144, "latitude": -33.8605837, "longitude": 151.02475}, {"name": "Austral", "locality": "City of Liverpool", "state": "NSW", "post_code": 2179, "latitude": -33.93109, "longitude": 150.79361}, {"name": "Avalon Beach", "locality": "Northern Beaches Council", "state": "NSW", "post_code": 2107, "latitude": -33.6302836, "longitude": 151.3297698}, {"name": "Badgerys Creek", "state": "NSW", "post_code": 2555, "latitude": -33.8828765, "longitude": 150.7608502}, {"name": "Balgowlah", "locality": "Northern Beaches Council", "state": "NSW", "post_code": 2093, "latitude": -33.79645, "longitude": 151.25854}, {"name": "Balgowlah Heights", "locality": "Northern Beaches Council", "state": "NSW", "post_code": 2093, "latitude": -33.8072234, "longitude": 151.2641654}, {"name": "Balmain", "locality": "Inner West Council", "state": "NSW", "post_code": 2041, "latitude": -33.85895, "longitude": 151.17906}, {"name": "Balmain East", "locality": "Inner West Council", "state": "NSW", "post_code": 2041, "latitude": -33.85811, "longitude": 151.19017}, {"name": "Bangor", "locality": "Sutherland Shire", "state": "NSW", "post_code": 2234, "latitude": -34.01908, "longitude": 151.02735}, {"name": "Banksia", "locality": "Bayside Council", "state": "NSW", "post_code": 2216, "latitude": -33.94776, "longitude": 151.14806}, {"name": "Banksmeadow", "locality": "Bayside Council", "state": "NSW", "post_code": 2019, "latitude": -33.95731, "longitude": 151.20699}, {"name": "Bankstown", "locality": "Bankstown City Council", "state": "NSW", "post_code": 2200, "latitude": -33.91817, "longitude": 151.03497}, {"name": "Bankstown Aerodrome", "locality": "Bankstown City Council", "state": "NSW", "post_code": 2198, "latitude": -33.9216102, "longitude": 150.9860137}, {"name": "Barangaroo", "state": "NSW", "post_code": 2000, "latitude": -33.8637941, "longitude": 151.2022304}, {"name": "Barden Ridge", "locality": "Sutherland Shire", "state": "NSW", "post_code": 2234, "latitude": -34.032, "longitude": 151.01}, {"name": "Bardia", "locality": "Campbelltown City Council", "state": "NSW", "post_code": 2565, "latitude": -33.9782167, "longitude": 150.8578648}, {"name": "Bardwell Park", "locality": "Bayside Council", "state": "NSW", "post_code": 2207, "latitude": -33.93539, "longitude": 151.12541}, {"name": "Bardwell Valley", "locality": "Bayside Council", "state": "NSW", "post_code": 2207, "latitude": -33.937, "longitude": 151.133}, {"name": "Bass Hill", "locality": "Bankstown City Council", "state": "NSW", "post_code": 2197, "latitude": -33.90092, "longitude": 150.9949}, {"name": "Baulkham Hills", "state": "NSW", "post_code": 2153, "latitude": -33.7619106, "longitude": 150.9929255}, {"name": "Bayview", "locality": "Northern Beaches Council", "state": "NSW", "post_code": 2104, "latitude": -33.658, "longitude": 151.288}, {"name": "Beacon Hill", "locality": "Northern Beaches Council", "state": "NSW", "post_code": 2100, "latitude": -33.7522, "longitude": 151.256}, {"name": "Beaconsfield", "locality": "Council of the City of Sydney", "state": "NSW", "post_code": 2015, "latitude": -33.91096, "longitude": 151.19995}, {"name": "Beaumont Hills", "locality": "The Hills Shire", "state": "NSW", "post_code": 2155, "latitude": -33.7, "longitude": 150.941}, {"name": "Beecroft", "locality": "The Council of the Shire of Hornsby", "state": "NSW", "post_code": 2119, "latitude": -33.7511096, "longitude": 151.0651688}, {"name": "Belfield", "state": "NSW", "post_code": 2191, "latitude": -33.905, "longitude": 151.084}, {"name": "Bella Vista", "locality": "The Hills Shire", "state": "NSW", "post_code": 2153, "latitude": -33.7385583, "longitude": 150.9502708}, {"name": "Bellevue Hill", "locality": "Woollahra Municipal Council", "state": "NSW", "post_code": 2023, "latitude": -33.88101, "longitude": 151.25253}, {"name": "Belmore", "locality": "Canterbury City Council", "state": "NSW", "post_code": 2192, "latitude": -33.919672, "longitude": 151.0896126}, {"name": "Belrose", "locality": "Northern Beaches Council", "state": "NSW", "post_code": 2085, "latitude": -33.73, "longitude": 151.22}, {"name": "Berala", "locality": "Cumberland Council", "state": "NSW", "post_code": 2141, "latitude": -33.87487, "longitude": 151.03073}, {"name": "Berkshire Park", "locality": "Penrith City Council", "state": "NSW", "post_code": 2765, "latitude": -33.6886, "longitude": 150.78165}, {"name": "Berowra", "locality": "The Council of the Shire of Hornsby", "state": "NSW", "post_code": 2081, "latitude": -33.62797380000001, "longitude": 151.1480265}, {"name": "Berowra Creek", "locality": "The Council of the Shire of Hornsby", "state": "NSW", "post_code": 2082, "latitude": -33.5292626, "longitude": 151.139068}, {"name": "Berowra Heights", "locality": "The Council of the Shire of Hornsby", "state": "NSW", "post_code": 2082, "latitude": -33.61334, "longitude": 151.138}, {"name": "Berowra Waters", "locality": "The Council of the Shire of Hornsby", "state": "NSW", "post_code": 2082, "latitude": -33.602344, "longitude": 151.120659}, {"name": "Berrilee", "locality": "The Council of the Shire of Hornsby", "state": "NSW", "post_code": 2159, "latitude": -33.61547, "longitude": 151.09811}, {"name": "Beverley Park", "locality": "Kogarah City Council", "state": "NSW", "post_code": 2217, "latitude": -33.97897, "longitude": 151.1285}, {"name": "Beverly Hills", "state": "NSW", "post_code": 2209, "latitude": -33.9488484, "longitude": 151.0803942}, {"name": "Bexley", "locality": "Bayside Council", "state": "NSW", "post_code": 2207, "latitude": -33.9525324, "longitude": 151.1226904}, {"name": "Bexley North", "locality": "Bayside Council", "state": "NSW", "post_code": 2207, "latitude": -33.9418, "longitude": 151.1114}, {"name": "Bickley Vale", "locality": "Camden Council", "state": "NSW", "post_code": 2570, "latitude": -34.08, "longitude": 150.665}, {"name": "Bidwill", "locality": "City of Blacktown", "state": "NSW", "post_code": 2770, "latitude": -33.7315556, "longitude": 150.8231418}, {"name": "Bilgola Beach", "locality": "Northern Beaches Council", "state": "NSW", "post_code": 2107, "latitude": -33.6444858, "longitude": 151.3275826}, {"name": "Bilgola Plateau", "locality": "Northern Beaches Council", "state": "NSW", "post_code": 2107, "latitude": -33.6429152, "longitude": 151.3137307}, {"name": "Birchgrove", "locality": "Inner West Council", "state": "NSW", "post_code": 2041, "latitude": -33.85275, "longitude": 151.18024}, {"name": "Birrong", "locality": "Bankstown City Council", "state": "NSW", "post_code": 2143, "latitude": -33.893, "longitude": 151.023}, {"name": "Blackett", "locality": "City of Blacktown", "state": "NSW", "post_code": 2770, "latitude": -33.73934, "longitude": 150.81266}, {"name": "Blacktown", "locality": "City of Blacktown", "state": "NSW", "post_code": 2148, "latitude": -33.76680690000001, "longitude": 150.905298}, {"name": "Blair Athol", "locality": "Campbelltown City Council", "state": "NSW", "post_code": 2560, "latitude": -34.063, "longitude": 150.8}, {"name": "Blairmount", "locality": "Campbelltown City Council", "state": "NSW", "post_code": 2559, "latitude": -34.04881, "longitude": 150.78734}, {"name": "Blakehurst", "locality": "Kogarah City Council", "state": "NSW", "post_code": 2221, "latitude": -33.9897654, "longitude": 151.1080239}, {"name": "Bligh Park", "locality": "Hawkesbury City Council", "state": "NSW", "post_code": 2756, "latitude": -33.638, "longitude": 150.799}, {"name": "Bondi", "locality": "Waverley Council", "state": "NSW", "post_code": 2026, "latitude": -33.89195, "longitude": 151.26099}, {"name": "Bondi Beach", "locality": "Waverley Council", "state": "NSW", "post_code": 2026, "latitude": -33.8914755, "longitude": 151.2766845}, {"name": "Bondi Junction", "locality": "Waverley Council", "state": "NSW", "post_code": 2022, "latitude": -33.89145, "longitude": 151.2497}, {"name": "Bonnet Bay", "locality": "Sutherland Shire", "state": "NSW", "post_code": 2226, "latitude": -34.01025, "longitude": 151.05238}, {"name": "Bonnyrigg", "locality": "Fairfield City Council", "state": "NSW", "post_code": 2177, "latitude": -33.89812, "longitude": 150.89006}, {"name": "Bonnyrigg Heights", "locality": "Fairfield City Council", "state": "NSW", "post_code": 2177, "latitude": -33.89112, "longitude": 150.87206}, {"name": "Bossley Park", "locality": "Fairfield City Council", "state": "NSW", "post_code": 2176, "latitude": -33.86341, "longitude": 150.88364}, {"name": "Botany", "locality": "Bayside Council", "state": "NSW", "post_code": 2019, "latitude": -33.9469267, "longitude": 151.1973167}, {"name": "Bow Bowing", "locality": "Campbelltown City Council", "state": "NSW", "post_code": 2566, "latitude": -34.01853, "longitude": 150.83816}, {"name": "Box Hill", "locality": "The Hills Shire", "state": "NSW", "post_code": 2765, "latitude": -33.65, "longitude": 150.88}, {"name": "Bradbury", "locality": "Campbelltown City Council", "state": "NSW", "post_code": 2560, "latitude": -34.08734, "longitude": 150.81626}, {"name": "Breakfast Point", "locality": "City of Canada Bay Council", "state": "NSW", "post_code": 2137, "latitude": -33.844, "longitude": 151.1129}, {"name": "Brighton-Le-Sands", "locality": "Bayside Council", "state": "NSW", "post_code": 2216, "latitude": -33.9590873, "longitude": 151.1520593}, {"name": "Bringelly", "state": "NSW", "post_code": 2556, "latitude": -33.92178, "longitude": 150.73234}, {"name": "Bronte", "locality": "Waverley Council", "state": "NSW", "post_code": 2024, "latitude": -33.90532, "longitude": 151.26069}, {"name": "Brooklyn", "locality": "The Council of the Shire of Hornsby", "state": "NSW", "post_code": 2083, "latitude": -33.5483592, "longitude": 151.2149798}, {"name": "Brookvale", "locality": "Northern Beaches Council", "state": "NSW", "post_code": 2100, "latitude": -33.7653, "longitude": 151.27041}, {"name": "Bundeena", "locality": "Sutherland Shire", "state": "NSW", "post_code": 2230, "latitude": -34.08341619999999, "longitude": 151.1515469}, {"name": "Bungarribee", "locality": "City of Blacktown", "state": "NSW", "post_code": 2767, "latitude": -33.7778159, "longitude": 150.8638434}, {"name": "Burraneer", "locality": "Sutherland Shire", "state": "NSW", "post_code": 2230, "latitude": -34.06996, "longitude": 151.13664}, {"name": "Burwood", "locality": "Burwood Council", "state": "NSW", "post_code": 2134, "latitude": -33.8773941, "longitude": 151.1036621}, {"name": "Burwood Heights", "locality": "Burwood Council", "state": "NSW", "post_code": 2136, "latitude": -33.8902, "longitude": 151.1052}, {"name": "Busby", "locality": "City of Liverpool", "state": "NSW", "post_code": 2168, "latitude": -33.91413000000001, "longitude": 150.88247}, {"name": "Cabarita", "locality": "City of Canada Bay Council", "state": "NSW", "post_code": 2137, "latitude": -33.84802, "longitude": 151.11485}, {"name": "Cabramatta", "locality": "Fairfield City Council", "state": "NSW", "post_code": 2166, "latitude": -33.8954675, "longitude": 150.9384081}, {"name": "Cabramatta West", "locality": "Fairfield City Council", "state": "NSW", "post_code": 2166, "latitude": -33.8947, "longitude": 150.915}, {"name": "Caddens", "locality": "Penrith City Council", "state": "NSW", "post_code": 2747, "latitude": -33.7745325, "longitude": 150.7374139}, {"name": "Cambridge Gardens", "locality": "Penrith City Council", "state": "NSW", "post_code": 2747, "latitude": -33.738, "longitude": 150.721}, {"name": "Cambridge Park", "locality": "Penrith City Council", "state": "NSW", "post_code": 2747, "latitude": -33.748333, "longitude": 150.734444}, {"name": "Camden", "locality": "Camden Council", "state": "NSW", "post_code": 2570, "latitude": -34.054444, "longitude": 150.695833}, {"name": "Camden South", "locality": "Camden Council", "state": "NSW", "post_code": 2570, "latitude": -34.08539, "longitude": 150.70744}, {"name": "Camellia", "locality": "City of Parramatta Council", "state": "NSW", "post_code": 2142, "latitude": -33.8194143, "longitude": 151.0333082}, {"name": "Cammeray", "locality": "North Sydney Council", "state": "NSW", "post_code": 2062, "latitude": -33.8229724, "longitude": 151.2102367}, {"name": "Campbelltown", "locality": "Campbelltown City Council", "state": "NSW", "post_code": 2560, "latitude": -34.0666148, "longitude": 150.8195571}, {"name": "Camperdown", "state": "NSW", "post_code": 2050, "latitude": -33.88622429999999, "longitude": 151.1791091}, {"name": "Campsie", "locality": "Canterbury City Council", "state": "NSW", "post_code": 2194, "latitude": -33.9130393, "longitude": 151.1040623}, {"name": "Canada Bay", "locality": "City of Canada Bay Council", "state": "NSW", "post_code": 2046, "latitude": -33.8671, "longitude": 151.1139}, {"name": "Canley Heights", "locality": "Fairfield City Council", "state": "NSW", "post_code": 2166, "latitude": -33.88502, "longitude": 150.9276}, {"name": "Canley Vale", "locality": "Fairfield City Council", "state": "NSW", "post_code": 2166, "latitude": -33.88642, "longitude": 150.946}, {"name": "Canoelands", "locality": "The Council of the Shire of Hornsby", "state": "NSW", "post_code": 2157, "latitude": -33.50824, "longitude": 151.06178}, {"name": "Canterbury", "locality": "Canterbury City Council", "state": "NSW", "post_code": 2193, "latitude": -33.9126, "longitude": 151.118}, {"name": "Caringbah", "locality": "Sutherland Shire", "state": "NSW", "post_code": 2229, "latitude": -34.0452, "longitude": 151.1218}, {"name": "Caringbah South", "locality": "Sutherland Shire", "state": "NSW", "post_code": 2229, "latitude": -34.0529294, "longitude": 151.1199309}, {"name": "Carlingford", "state": "NSW", "post_code": 2118, "latitude": -33.7770423, "longitude": 151.0456097}, {"name": "Carlton", "state": "NSW", "post_code": 2218, "latitude": -33.9685296, "longitude": 151.1246063}, {"name": "Carnes Hill", "locality": "City of Liverpool", "state": "NSW", "post_code": 2171, "latitude": -33.9383285, "longitude": 150.8478522}, {"name": "Carramar", "locality": "Fairfield City Council", "state": "NSW", "post_code": 2163, "latitude": -33.88605, "longitude": 150.96442}, {"name": "Carss Park", "locality": "Kogarah City Council", "state": "NSW", "post_code": 2221, "latitude": -33.98718, "longitude": 151.11889}, {"name": "Cartwright", "locality": "City of Liverpool", "state": "NSW", "post_code": 2168, "latitude": -33.9240777, "longitude": 150.8914686}, {"name": "Castle Cove", "locality": "City of Willoughby", "state": "NSW", "post_code": 2069, "latitude": -33.78464, "longitude": 151.20642}, {"name": "Castle Hill", "state": "NSW", "post_code": 2154, "latitude": -33.7311837, "longitude": 151.0042006}, {"name": "Castlecrag", "locality": "City of Willoughby", "state": "NSW", "post_code": 2068, "latitude": -33.80137, "longitude": 151.22007}, {"name": "Castlereagh", "locality": "Penrith City Council", "state": "NSW", "post_code": 2749, "latitude": -33.6719, "longitude": 150.6784}, {"name": "Casula", "locality": "City of Liverpool", "state": "NSW", "post_code": 2170, "latitude": -33.9503864, "longitude": 150.9044946}, {"name": "Catherine Field", "locality": "Camden Council", "state": "NSW", "post_code": 2557, "latitude": -33.9833, "longitude": 150.76}, {"name": "Cattai", "state": "NSW", "post_code": 2756, "latitude": -33.5561, "longitude": 150.91205}, {"name": "Cawdor", "state": "NSW", "post_code": 2570, "latitude": -34.083333, "longitude": 150.683333}, {"name": "Cecil Hills", "locality": "City of Liverpool", "state": "NSW", "post_code": 2171, "latitude": -33.8876831, "longitude": 150.8490573}, {"name": "Cecil Park", "state": "NSW", "post_code": 2178, "latitude": -33.87297, "longitude": 150.83823}, {"name": "Centennial Park", "state": "NSW", "post_code": 2021, "latitude": -33.8942521, "longitude": 151.2330449}, {"name": "Chatswood", "locality": "City of Willoughby", "state": "NSW", "post_code": 2067, "latitude": -33.7960696, "longitude": 151.1780469}, {"name": "Chatswood West", "state": "NSW", "post_code": 2067, "latitude": -33.7966739, "longitude": 151.1621677}, {"name": "Cheltenham", "locality": "The Council of the Shire of Hornsby", "state": "NSW", "post_code": 2119, "latitude": -33.7553681, "longitude": 151.078072}, {"name": "Cherrybrook", "locality": "The Council of the Shire of Hornsby", "state": "NSW", "post_code": 2126, "latitude": -33.7251, "longitude": 151.04931}, {"name": "Chester Hill", "state": "NSW", "post_code": 2162, "latitude": -33.87838, "longitude": 151.00443}, {"name": "Chifley", "locality": "Randwick City Council", "state": "NSW", "post_code": 2036, "latitude": -33.969, "longitude": 151.24}, {"name": "Chippendale", "locality": "Council of the City of Sydney", "state": "NSW", "post_code": 2008, "latitude": -33.8863, "longitude": 151.1999}, {"name": "Chipping Norton", "locality": "City of Liverpool", "state": "NSW", "post_code": 2170, "latitude": -33.911, "longitude": 150.959}, {"name": "Chiswick", "locality": "City of Canada Bay Council", "state": "NSW", "post_code": 2046, "latitude": -33.85192, "longitude": 151.13605}, {"name": "Chullora", "locality": "Bankstown City Council", "state": "NSW", "post_code": 2190, "latitude": -33.8908, "longitude": 151.0475}, {"name": "Church Point", "locality": "Northern Beaches Council", "state": "NSW", "post_code": 2105, "latitude": -33.6544, "longitude": 151.2791}, {"name": "Claremont Meadows", "locality": "Penrith City Council", "state": "NSW", "post_code": 2747, "latitude": -33.779, "longitude": 150.753}, {"name": "Clarendon", "locality": "Hawkesbury City Council", "state": "NSW", "post_code": 2756, "latitude": -33.6117, "longitude": 150.78707}, {"name": "Clareville", "locality": "Northern Beaches Council", "state": "NSW", "post_code": 2107, "latitude": -33.6362228, "longitude": 151.3100857}, {"name": "Claymore", "locality": "Campbelltown City Council", "state": "NSW", "post_code": 2559, "latitude": -34.0444, "longitude": 150.8096}, {"name": "Clemton Park", "locality": "Canterbury City Council", "state": "NSW", "post_code": 2206, "latitude": -33.9258275, "longitude": 151.104641}, {"name": "Clontarf", "locality": "Northern Beaches Council", "state": "NSW", "post_code": 2093, "latitude": -33.80834, "longitude": 151.25342}, {"name": "Clovelly", "locality": "Randwick City Council", "state": "NSW", "post_code": 2031, "latitude": -33.9121, "longitude": 151.2629}, {"name": "Clyde", "locality": "City of Parramatta Council", "state": "NSW", "post_code": 2142, "latitude": -33.8325954, "longitude": 151.0223928}, {"name": "Coasters Retreat", "locality": "Northern Beaches Council", "state": "NSW", "post_code": 2108, "latitude": -33.605, "longitude": 151.299}, {"name": "Cobbitty", "locality": "Camden Council", "state": "NSW", "post_code": 2570, "latitude": -34.016667, "longitude": 150.683333}, {"name": "Colebee", "locality": "City of Blacktown", "state": "NSW", "post_code": 2761, "latitude": -33.721, "longitude": 150.855}, {"name": "Collaroy", "locality": "Northern Beaches Council", "state": "NSW", "post_code": 2097, "latitude": -33.73, "longitude": 151.3}, {"name": "Collaroy Plateau", "locality": "Northern Beaches Council", "state": "NSW", "post_code": 2097, "latitude": -33.7293326, "longitude": 151.290404}, {"name": "Colyton", "locality": "Penrith City Council", "state": "NSW", "post_code": 2760, "latitude": -33.7830958, "longitude": 150.7954903}, {"name": "Como", "locality": "Sutherland Shire", "state": "NSW", "post_code": 2226, "latitude": -34.0045, "longitude": 151.06379}, {"name": "Concord", "locality": "City of Canada Bay Council", "state": "NSW", "post_code": 2137, "latitude": -33.8550219, "longitude": 151.1078139}, {"name": "Concord West", "locality": "City of Canada Bay Council", "state": "NSW", "post_code": 2138, "latitude": -33.8396663, "longitude": 151.088239}, {"name": "Condell Park", "locality": "Bankstown City Council", "state": "NSW", "post_code": 2200, "latitude": -33.92498, "longitude": 151.00769}, {"name": "Connells Point", "locality": "Kogarah City Council", "state": "NSW", "post_code": 2221, "latitude": -33.98246, "longitude": 151.10016}, {"name": "Constitution Hill", "locality": "City of Parramatta Council", "state": "NSW", "post_code": 2145, "latitude": -33.7945, "longitude": 150.9765}, {"name": "Coogee", "locality": "Randwick City Council", "state": "NSW", "post_code": 2034, "latitude": -33.919, "longitude": 151.2555}, {"name": "Cornwallis", "locality": "Hawkesbury City Council", "state": "NSW", "post_code": 2756, "latitude": -33.592, "longitude": 150.812}, {"name": "Cottage Point", "locality": "Northern Beaches Council", "state": "NSW", "post_code": 2084, "latitude": -33.62090999999999, "longitude": 151.20225}, {"name": "Cowan", "locality": "The Council of the Shire of Hornsby", "state": "NSW", "post_code": 2081, "latitude": -33.5879078, "longitude": 151.16854}, {"name": "Cranebrook", "locality": "Penrith City Council", "state": "NSW", "post_code": 2749, "latitude": -33.72088, "longitude": 150.71302}, {"name": "Cremorne", "locality": "North Sydney Council", "state": "NSW", "post_code": 2090, "latitude": -33.8265345, "longitude": 151.2276279}, {"name": "Cremorne Point", "locality": "North Sydney Council", "state": "NSW", "post_code": 2090, "latitude": -33.84076, "longitude": 151.22789}, {"name": "Cromer", "locality": "Northern Beaches Council", "state": "NSW", "post_code": 2099, "latitude": -33.74142, "longitude": 151.28227}, {"name": "Cronulla", "locality": "Sutherland Shire", "state": "NSW", "post_code": 2230, "latitude": -34.05744, "longitude": 151.15219}, {"name": "Crows Nest", "locality": "North Sydney Council", "state": "NSW", "post_code": 2065, "latitude": -33.82613, "longitude": 151.20505}, {"name": "Croydon", "state": "NSW", "post_code": 2132, "latitude": -33.8808766, "longitude": 151.1154679}, {"name": "Croydon Park", "state": "NSW", "post_code": 2133, "latitude": -33.89679, "longitude": 151.10951}, {"name": "Cumberland Reach", "locality": "Hawkesbury City Council", "state": "NSW", "post_code": 2756, "latitude": -33.456, "longitude": 150.896}, {"name": "Curl Curl", "locality": "Northern Beaches Council", "state": "NSW", "post_code": 2096, "latitude": -33.77213, "longitude": 151.28992}, {"name": "Currans Hill", "locality": "Camden Council", "state": "NSW", "post_code": 2567, "latitude": -34.04084, "longitude": 150.76853}, {"name": "Currawong Beach", "locality": "Northern Beaches Council", "state": "NSW", "post_code": 2108, "latitude": -33.5952002, "longitude": 151.2979869}, {"name": "Daceyville", "locality": "Bayside Council", "state": "NSW", "post_code": 2032, "latitude": -33.92793, "longitude": 151.22349}, {"name": "Dangar Island", "locality": "The Council of the Shire of Hornsby", "state": "NSW", "post_code": 2083, "latitude": -33.54142, "longitude": 151.2381}, {"name": "Darling Point", "locality": "Woollahra Municipal Council", "state": "NSW", "post_code": 2027, "latitude": -33.87021, "longitude": 151.23746}, {"name": "Darlinghurst", "locality": "Council of the City of Sydney", "state": "NSW", "post_code": 2010, "latitude": -33.8780176, "longitude": 151.2204441}, {"name": "Darlington", "locality": "Council of the City of Sydney", "state": "NSW", "post_code": 2008, "latitude": -33.890334, "longitude": 151.19661}, {"name": "Davidson", "locality": "Northern Beaches Council", "state": "NSW", "post_code": 2085, "latitude": -33.73801, "longitude": 151.19297}, {"name": "Dawes Point", "state": "NSW", "post_code": 2000, "latitude": -33.856, "longitude": 151.207}, {"name": "Dean Park", "locality": "City of Blacktown", "state": "NSW", "post_code": 2761, "latitude": -33.7333, "longitude": 150.85}, {"name": "Dee Why", "locality": "Northern Beaches Council", "state": "NSW", "post_code": 2099, "latitude": -33.7544, "longitude": 151.2854}, {"name": "Denham Court", "state": "NSW", "post_code": 2565, "latitude": -33.9844003, "longitude": 150.8444381}, {"name": "Denistone", "locality": "City of Ryde", "state": "NSW", "post_code": 2114, "latitude": -33.80085, "longitude": 151.08648}, {"name": "Denistone East", "locality": "City of Ryde", "state": "NSW", "post_code": 2112, "latitude": -33.79885, "longitude": 151.09948}, {"name": "Denistone West", "locality": "City of Ryde", "state": "NSW", "post_code": 2114, "latitude": -33.8007216, "longitude": 151.0777054}, {"name": "Dharruk", "locality": "City of Blacktown", "state": "NSW", "post_code": 2770, "latitude": -33.74807, "longitude": 150.8159}, {"name": "Dolans Bay", "locality": "Sutherland Shire", "state": "NSW", "post_code": 2229, "latitude": -34.06259, "longitude": 151.12641}, {"name": "Dolls Point", "locality": "Bayside Council", "state": "NSW", "post_code": 2219, "latitude": -33.99386, "longitude": 151.14301}, {"name": "Doonside", "locality": "City of Blacktown", "state": "NSW", "post_code": 2767, "latitude": -33.7639837, "longitude": 150.8696588}, {"name": "Double Bay", "locality": "Woollahra Municipal Council", "state": "NSW", "post_code": 2028, "latitude": -33.8775, "longitude": 151.2412}, {"name": "Dover Heights", "locality": "Waverley Council", "state": "NSW", "post_code": 2030, "latitude": -33.87185, "longitude": 151.27837}, {"name": "Drummoyne", "locality": "City of Canada Bay Council", "state": "NSW", "post_code": 2047, "latitude": -33.8510541, "longitude": 151.1545209}, {"name": "Duffys Forest", "locality": "Northern Beaches Council", "state": "NSW", "post_code": 2084, "latitude": -33.67525, "longitude": 151.19789}, {"name": "Dulwich Hill", "locality": "Inner West Council", "state": "NSW", "post_code": 2203, "latitude": -33.90332679999999, "longitude": 151.1424436}, {"name": "Dundas", "locality": "City of Parramatta Council", "state": "NSW", "post_code": 2117, "latitude": -33.80404, "longitude": 151.0351}, {"name": "Dundas Valley", "locality": "City of Parramatta Council", "state": "NSW", "post_code": 2117, "latitude": -33.79312, "longitude": 151.05999}, {"name": "Dural", "state": "NSW", "post_code": 2158, "latitude": -33.682, "longitude": 151.029}, {"name": "Eagle Vale", "locality": "Campbelltown City Council", "state": "NSW", "post_code": 2558, "latitude": -34.03686, "longitude": 150.81144}, {"name": "Earlwood", "locality": "Canterbury City Council", "state": "NSW", "post_code": 2206, "latitude": -33.922442, "longitude": 151.1286591}, {"name": "East Gordon", "locality": "Ku-ring-gai Council", "state": "NSW", "post_code": 2072, "latitude": -33.7556261, "longitude": 151.1527768}, {"name": "East Hills", "locality": "Bankstown City Council", "state": "NSW", "post_code": 2213, "latitude": -33.96396, "longitude": 150.98974}, {"name": "East Killara", "locality": "Ku-ring-gai Council", "state": "NSW", "post_code": 2071, "latitude": -33.75592, "longitude": 151.17973}, {"name": "East Kurrajong", "locality": "Hawkesbury City Council", "state": "NSW", "post_code": 2758, "latitude": -33.515278, "longitude": 150.767778}, {"name": "East Lindfield", "locality": "Ku-ring-gai Council", "state": "NSW", "post_code": 2070, "latitude": -33.77274, "longitude": 151.18726}, {"name": "East Ryde", "locality": "City of Ryde", "state": "NSW", "post_code": 2113, "latitude": -33.81, "longitude": 151.135}, {"name": "Eastern Creek", "locality": "City of Blacktown", "state": "NSW", "post_code": 2766, "latitude": -33.8071983, "longitude": 150.8514864}, {"name": "Eastgardens", "locality": "Bayside Council", "state": "NSW", "post_code": 2036, "latitude": -33.946, "longitude": 151.225}, {"name": "Eastlakes", "locality": "Bayside Council", "state": "NSW", "post_code": 2018, "latitude": -33.9266627, "longitude": 151.2107787}, {"name": "Eastwood", "state": "NSW", "post_code": 2122, "latitude": -33.790362, "longitude": 151.081731}, {"name": "Ebenezer", "locality": "Hawkesbury City Council", "state": "NSW", "post_code": 2756, "latitude": -33.5318, "longitude": 150.8679}, {"name": "Edensor Park", "locality": "Fairfield City Council", "state": "NSW", "post_code": 2176, "latitude": -33.88095, "longitude": 150.87516}, {"name": "Edgecliff", "locality": "Woollahra Municipal Council", "state": "NSW", "post_code": 2027, "latitude": -33.8799875, "longitude": 151.2357452}, {"name": "Edmondson Park", "locality": "City of Liverpool", "state": "NSW", "post_code": 2174, "latitude": -33.9606778, "longitude": 150.8622496}, {"name": "Elanora Heights", "locality": "Northern Beaches Council", "state": "NSW", "post_code": 2101, "latitude": -33.70102, "longitude": 151.2789}, {"name": "Elderslie", "locality": "Camden Council", "state": "NSW", "post_code": 2570, "latitude": -34.05462, "longitude": 150.7125}, {"name": "Elizabeth Bay", "locality": "Council of the City of Sydney", "state": "NSW", "post_code": 2011, "latitude": -33.87143, "longitude": 151.22841}, {"name": "Elizabeth Hills", "locality": "City of Liverpool", "state": "NSW", "post_code": 2171, "latitude": -33.9000666, "longitude": 150.8478522}, {"name": "Ellis Lane", "locality": "Camden Council", "state": "NSW", "post_code": 2570, "latitude": -34.034, "longitude": 150.675}, {"name": "Elvina Bay", "locality": "Northern Beaches Council", "state": "NSW", "post_code": 2105, "latitude": -33.639515, "longitude": 151.277825}, {"name": "Emerton", "locality": "City of Blacktown", "state": "NSW", "post_code": 2770, "latitude": -33.75, "longitude": 150.8027}, {"name": "Emu Heights", "locality": "Penrith City Council", "state": "NSW", "post_code": 2750, "latitude": -33.73521, "longitude": 150.6503}, {"name": "Emu Plains", "locality": "Penrith City Council", "state": "NSW", "post_code": 2750, "latitude": -33.75206, "longitude": 150.65967}, {"name": "Enfield", "locality": "Burwood Council", "state": "NSW", "post_code": 2136, "latitude": -33.89059, "longitude": 151.09246}, {"name": "Engadine", "locality": "Sutherland Shire", "state": "NSW", "post_code": 2233, "latitude": -34.065722, "longitude": 151.012664}, {"name": "Englorie Park", "locality": "Campbelltown City Council", "state": "NSW", "post_code": 2560, "latitude": -34.0806577, "longitude": 150.7948026}, {"name": "Enmore", "locality": "Inner West Council", "state": "NSW", "post_code": 2042, "latitude": -33.90067, "longitude": 151.16768}, {"name": "Epping", "state": "NSW", "post_code": 2121, "latitude": -33.7746, "longitude": 151.0788}, {"name": "Ermington", "locality": "City of Parramatta Council", "state": "NSW", "post_code": 2115, "latitude": -33.8143301, "longitude": 151.0562386}, {"name": "Erskine Park", "locality": "Penrith City Council", "state": "NSW", "post_code": 2759, "latitude": -33.81323, "longitude": 150.80143}, {"name": "Erskineville", "locality": "Council of the City of Sydney", "state": "NSW", "post_code": 2043, "latitude": -33.90476, "longitude": 151.18479}, {"name": "Eschol Park", "locality": "Campbelltown City Council", "state": "NSW", "post_code": 2558, "latitude": -34.0304, "longitude": 150.80942}, {"name": "Eveleigh", "locality": "Council of the City of Sydney", "state": "NSW", "post_code": 2015, "latitude": -33.895, "longitude": 151.191}, {"name": "Fairfield", "state": "NSW", "post_code": 2165, "latitude": -33.8705856, "longitude": 150.9564102}, {"name": "Fairfield East", "locality": "Fairfield City Council", "state": "NSW", "post_code": 2165, "latitude": -33.87177, "longitude": 150.97346}, {"name": "Fairfield Heights", "locality": "Fairfield City Council", "state": "NSW", "post_code": 2165, "latitude": -33.86848, "longitude": 150.94239}, {"name": "Fairfield West", "locality": "Fairfield City Council", "state": "NSW", "post_code": 2165, "latitude": -33.87112, "longitude": 150.92322}, {"name": "Fairlight", "locality": "Northern Beaches Council", "state": "NSW", "post_code": 2094, "latitude": -33.796, "longitude": 151.277}, {"name": "Fiddletown", "locality": "The Council of the Shire of Hornsby", "state": "NSW", "post_code": 2159, "latitude": -33.60259, "longitude": 151.04984}, {"name": "Five Dock", "locality": "City of Canada Bay Council", "state": "NSW", "post_code": 2046, "latitude": -33.8692538, "longitude": 151.1295659}, {"name": "Flemington", "locality": "Strathfield Municipal Council", "state": "NSW", "post_code": 2140, "latitude": -33.8649268, "longitude": 151.0696729}, {"name": "Forest Glen", "locality": "The Council of the Shire of Hornsby", "state": "NSW", "post_code": 2157, "latitude": -33.55054, "longitude": 151.01974}, {"name": "Forest Lodge", "locality": "Council of the City of Sydney", "state": "NSW", "post_code": 2037, "latitude": -33.88396, "longitude": 151.1815}, {"name": "Forestville", "locality": "Northern Beaches Council", "state": "NSW", "post_code": 2087, "latitude": -33.7613, "longitude": 151.2113}, {"name": "Freemans Reach", "locality": "Hawkesbury City Council", "state": "NSW", "post_code": 2756, "latitude": -33.56146, "longitude": 150.79787}, {"name": "Frenchs Forest", "locality": "Northern Beaches Council", "state": "NSW", "post_code": 2086, "latitude": -33.749, "longitude": 151.2331}, {"name": "Freshwater", "locality": "Northern Beaches Council", "state": "NSW", "post_code": 2096, "latitude": -33.7749, "longitude": 151.28783}, {"name": "Galston", "locality": "The Council of the Shire of Hornsby", "state": "NSW", "post_code": 2159, "latitude": -33.65, "longitude": 151.043}, {"name": "Georges Hall", "locality": "Bankstown City Council", "state": "NSW", "post_code": 2198, "latitude": -33.91217, "longitude": 150.98557}, {"name": "Gilead", "locality": "Campbelltown City Council", "state": "NSW", "post_code": 2560, "latitude": -34.1410068, "longitude": 150.7923904}, {"name": "Girraween", "locality": "Cumberland Council", "state": "NSW", "post_code": 2145, "latitude": -33.80128, "longitude": 150.94305}, {"name": "Gladesville", "state": "NSW", "post_code": 2111, "latitude": -33.8301698, "longitude": 151.1267591}, {"name": "Glebe", "locality": "Council of the City of Sydney", "state": "NSW", "post_code": 2037, "latitude": -33.8797767, "longitude": 151.1869715}, {"name": "Gledswood Hills", "locality": "Camden Council", "state": "NSW", "post_code": 2557, "latitude": -34.011667, "longitude": 150.780278}, {"name": "Glen Alpine", "locality": "Campbelltown City Council", "state": "NSW", "post_code": 2560, "latitude": -34.09, "longitude": 150.785}, {"name": "Glendenning", "locality": "City of Blacktown", "state": "NSW", "post_code": 2761, "latitude": -33.7461349, "longitude": 150.8536426}, {"name": "Glenfield", "locality": "Campbelltown City Council", "state": "NSW", "post_code": 2167, "latitude": -33.9748797, "longitude": 150.8992441}, {"name": "Glenhaven", "state": "NSW", "post_code": 2156, "latitude": -33.70547, "longitude": 151.00334}, {"name": "Glenmore Park", "locality": "Penrith City Council", "state": "NSW", "post_code": 2745, "latitude": -33.79, "longitude": 150.676}, {"name": "Glenorie", "state": "NSW", "post_code": 2157, "latitude": -33.60224, "longitude": 151.00247}, {"name": "Glenwood", "locality": "City of Blacktown", "state": "NSW", "post_code": 2768, "latitude": -33.7398598, "longitude": 150.9385702}, {"name": "Glossodia", "locality": "Hawkesbury City Council", "state": "NSW", "post_code": 2756, "latitude": -33.53432, "longitude": 150.78231}, {"name": "Gordon", "locality": "Ku-ring-gai Council", "state": "NSW", "post_code": 2072, "latitude": -33.7556261, "longitude": 151.1527768}, {"name": "Granville", "state": "NSW", "post_code": 2142, "latitude": -33.8353132, "longitude": 151.0065546}, {"name": "Grasmere", "locality": "Camden Council", "state": "NSW", "post_code": 2570, "latitude": -34.057, "longitude": 150.667}, {"name": "Grays Point", "locality": "Sutherland Shire", "state": "NSW", "post_code": 2232, "latitude": -34.05508, "longitude": 151.07492}, {"name": "Great Mackerel Beach", "locality": "Northern Beaches Council", "state": "NSW", "post_code": 2108, "latitude": -33.59166700000001, "longitude": 151.300833}, {"name": "Green Valley", "locality": "City of Liverpool", "state": "NSW", "post_code": 2168, "latitude": -33.90596, "longitude": 150.86681}, {"name": "Greenacre", "state": "NSW", "post_code": 2190, "latitude": -33.9077605, "longitude": 151.0643509}, {"name": "Greendale", "locality": "City of Liverpool", "state": "NSW", "post_code": 2745, "latitude": -33.92, "longitude": 150.67}, {"name": "Greenfield Park", "locality": "Fairfield City Council", "state": "NSW", "post_code": 2176, "latitude": -33.87676, "longitude": 150.88819}, {"name": "Greenhills Beach", "locality": "Sutherland Shire", "state": "NSW", "post_code": 2230, "latitude": -34.034689, "longitude": 151.1646}, {"name": "Greenwich", "locality": "Lane Cove Municipal Council", "state": "NSW", "post_code": 2065, "latitude": -33.83302, "longitude": 151.18362}, {"name": "Gregory Hills", "state": "NSW", "post_code": 2557, "latitude": -34.0307506, "longitude": 150.7766392}, {"name": "Greystanes", "locality": "Cumberland Council", "state": "NSW", "post_code": 2145, "latitude": -33.8297061, "longitude": 150.9488947}, {"name": "Grose Vale", "locality": "Hawkesbury City Council", "state": "NSW", "post_code": 2753, "latitude": -33.584, "longitude": 150.674}, {"name": "Grose Wold", "locality": "Hawkesbury City Council", "state": "NSW", "post_code": 2753, "latitude": -33.598611, "longitude": 150.684722}, {"name": "Guildford", "locality": "Cumberland Council", "state": "NSW", "post_code": 2161, "latitude": -33.8557329, "longitude": 150.9950627}, {"name": "Guildford West", "locality": "Cumberland Council", "state": "NSW", "post_code": 2161, "latitude": -33.850656, "longitude": 150.96308}, {"name": "Gymea", "locality": "Sutherland Shire", "state": "NSW", "post_code": 2227, "latitude": -34.0333, "longitude": 151.08556}, {"name": "Gymea Bay", "locality": "Sutherland Shire", "state": "NSW", "post_code": 2227, "latitude": -34.0496, "longitude": 151.0864}, {"name": "Haberfield", "locality": "Inner West Council", "state": "NSW", "post_code": 2045, "latitude": -33.8804879, "longitude": 151.138849}, {"name": "Hammondville", "locality": "City of Liverpool", "state": "NSW", "post_code": 2170, "latitude": -33.9522602, "longitude": 150.9601708}, {"name": "Harrington Park", "locality": "Camden Council", "state": "NSW", "post_code": 2567, "latitude": -34.02769, "longitude": 150.73081}, {"name": "Harris Park", "locality": "City of Parramatta Council", "state": "NSW", "post_code": 2150, "latitude": -33.8219453, "longitude": 151.0107506}, {"name": "Hassall Grove", "locality": "City of Blacktown", "state": "NSW", "post_code": 2761, "latitude": -33.7309406, "longitude": 150.840584}, {"name": "Haymarket", "locality": "Council of the City of Sydney", "state": "NSW", "post_code": 2000, "latitude": -33.88092, "longitude": 151.20294}, {"name": "Heathcote", "locality": "Sutherland Shire", "state": "NSW", "post_code": 2233, "latitude": -34.08506, "longitude": 151.00808}, {"name": "Hebersham", "locality": "City of Blacktown", "state": "NSW", "post_code": 2770, "latitude": -33.7459836, "longitude": 150.8245953}, {"name": "Heckenberg", "locality": "City of Liverpool", "state": "NSW", "post_code": 2168, "latitude": -33.91068, "longitude": 150.88887}, {"name": "Henley", "locality": "The Council of the Municipality of Hunters Hill", "state": "NSW", "post_code": 2111, "latitude": -33.84252, "longitude": 151.13475}, {"name": "Hillsdale", "locality": "Bayside Council", "state": "NSW", "post_code": 2036, "latitude": -33.95493, "longitude": 151.22875}, {"name": "Hinchinbrook", "locality": "City of Liverpool", "state": "NSW", "post_code": 2168, "latitude": -33.9165364, "longitude": 150.8639325}, {"name": "Hobartville", "locality": "Hawkesbury City Council", "state": "NSW", "post_code": 2753, "latitude": -33.60458, "longitude": 150.74298}, {"name": "Holroyd", "locality": "Cumberland Council", "state": "NSW", "post_code": 2142, "latitude": -33.831, "longitude": 150.997}, {"name": "Holsworthy", "state": "NSW", "post_code": 2173, "latitude": -33.9565362, "longitude": 150.9498811}, {"name": "Homebush", "locality": "Strathfield Municipal Council", "state": "NSW", "post_code": 2140, "latitude": -33.862749, "longitude": 151.0794998}, {"name": "Homebush West", "state": "NSW", "post_code": 2140, "latitude": -33.858361, "longitude": 151.0693819}, {"name": "Horningsea Park", "locality": "City of Liverpool", "state": "NSW", "post_code": 2171, "latitude": -33.944, "longitude": 150.844}, {"name": "Hornsby", "locality": "The Council of the Shire of Hornsby", "state": "NSW", "post_code": 2077, "latitude": -33.7046328, "longitude": 151.0987055}, {"name": "Hornsby Heights", "locality": "The Council of the Shire of Hornsby", "state": "NSW", "post_code": 2077, "latitude": -33.6722, "longitude": 151.0988}, {"name": "Horsley Park", "locality": "Fairfield City Council", "state": "NSW", "post_code": 2175, "latitude": -33.8417894, "longitude": 150.8553834}, {"name": "Hoxton Park", "locality": "City of Liverpool", "state": "NSW", "post_code": 2171, "latitude": -33.93382, "longitude": 150.85284}, {"name": "Hunters Hill", "locality": "The Council of the Municipality of Hunters Hill", "state": "NSW", "post_code": 2110, "latitude": -33.8337, "longitude": 151.14366}, {"name": "Huntingwood", "locality": "City of Blacktown", "state": "NSW", "post_code": 2148, "latitude": -33.799, "longitude": 150.885}, {"name": "Huntleys Cove", "locality": "The Council of the Municipality of Hunters Hill", "state": "NSW", "post_code": 2111, "latitude": -33.8385208, "longitude": 151.138135}, {"name": "Huntleys Point", "locality": "The Council of the Municipality of Hunters Hill", "state": "NSW", "post_code": 2111, "latitude": -33.839, "longitude": 151.147}, {"name": "Hurlstone Park", "state": "NSW", "post_code": 2193, "latitude": -33.91058, "longitude": 151.12919}, {"name": "Hurstville", "state": "NSW", "post_code": 2220, "latitude": -33.9645633, "longitude": 151.1010187}, {"name": "Hurstville Grove", "locality": "Kogarah City Council", "state": "NSW", "post_code": 2220, "latitude": -33.97972, "longitude": 151.09298}, {"name": "Illawong", "locality": "Sutherland Shire", "state": "NSW", "post_code": 2234, "latitude": -34.00057, "longitude": 151.03587}, {"name": "Ingleburn", "locality": "Campbelltown City Council", "state": "NSW", "post_code": 2565, "latitude": -34.0044124, "longitude": 150.8630229}, {"name": "Ingleside", "locality": "Northern Beaches Council", "state": "NSW", "post_code": 2101, "latitude": -33.6823, "longitude": 151.26315}, {"name": "Jamisontown", "locality": "Penrith City Council", "state": "NSW", "post_code": 2750, "latitude": -33.76829, "longitude": 150.67238}, {"name": "Jannali", "locality": "Sutherland Shire", "state": "NSW", "post_code": 2226, "latitude": -34.01695, "longitude": 151.06522}, {"name": "Jordan Springs", "locality": "Penrith City Council", "state": "NSW", "post_code": 2747, "latitude": -33.724, "longitude": 150.728}, {"name": "Kangaroo Point", "locality": "Sutherland Shire", "state": "NSW", "post_code": 2224, "latitude": -34.002, "longitude": 151.096}, {"name": "Kareela", "locality": "Sutherland Shire", "state": "NSW", "post_code": 2232, "latitude": -34.01503, "longitude": 151.08046}, {"name": "Kearns", "locality": "Campbelltown City Council", "state": "NSW", "post_code": 2558, "latitude": -34.02373, "longitude": 150.80628}, {"name": "Kellyville", "locality": "The Hills Shire", "state": "NSW", "post_code": 2155, "latitude": -33.7111451, "longitude": 150.9550731}, {"name": "Kellyville Ridge", "locality": "City of Blacktown", "state": "NSW", "post_code": 2155, "latitude": -33.703, "longitude": 150.919}, {"name": "Kemps Creek", "state": "NSW", "post_code": 2178, "latitude": -33.87464, "longitude": 150.79868}, {"name": "Kensington", "locality": "Randwick City Council", "state": "NSW", "post_code": 2033, "latitude": -33.910021, "longitude": 151.2232749}, {"name": "Kenthurst", "locality": "The Hills Shire", "state": "NSW", "post_code": 2156, "latitude": -33.6693, "longitude": 151.00158}, {"name": "Kentlyn", "locality": "Campbelltown City Council", "state": "NSW", "post_code": 2560, "latitude": -34.05193, "longitude": 150.87797}, {"name": "Killara", "locality": "Ku-ring-gai Council", "state": "NSW", "post_code": 2071, "latitude": -33.76864, "longitude": 151.16347}, {"name": "Killarney Heights", "locality": "Northern Beaches Council", "state": "NSW", "post_code": 2087, "latitude": -33.7742, "longitude": 151.2155}, {"name": "Kings Langley", "locality": "City of Blacktown", "state": "NSW", "post_code": 2147, "latitude": -33.7499763, "longitude": 150.9345044}, {"name": "Kings Park", "locality": "City of Blacktown", "state": "NSW", "post_code": 2148, "latitude": -33.7457198, "longitude": 150.9047417}, {"name": "Kingsford", "locality": "Randwick City Council", "state": "NSW", "post_code": 2032, "latitude": -33.92457, "longitude": 151.22765}, {"name": "Kingsgrove", "state": "NSW", "post_code": 2208, "latitude": -33.9386352, "longitude": 151.100641}, {"name": "Kingswood", "locality": "Penrith City Council", "state": "NSW", "post_code": 2747, "latitude": -33.759, "longitude": 150.72}, {"name": "Kingswood Park", "locality": "Penrith City Council", "state": "NSW", "post_code": 2747, "latitude": -33.759, "longitude": 150.72}, {"name": "Kirkham", "locality": "Camden Council", "state": "NSW", "post_code": 2570, "latitude": -34.039, "longitude": 150.709}, {"name": "Kirrawee", "locality": "Sutherland Shire", "state": "NSW", "post_code": 2232, "latitude": -34.0357295, "longitude": 151.0707945}, {"name": "Kirribilli", "locality": "North Sydney Council", "state": "NSW", "post_code": 2061, "latitude": -33.8491363, "longitude": 151.2175297}, {"name": "Kogarah", "state": "NSW", "post_code": 2217, "latitude": -33.9643523, "longitude": 151.1372588}, {"name": "Kogarah Bay", "locality": "Kogarah City Council", "state": "NSW", "post_code": 2217, "latitude": -33.98338, "longitude": 151.12166}, {"name": "Ku-ring-gai Chase", "locality": "Northern Beaches Council", "state": "NSW", "post_code": 2084, "latitude": -33.6375668, "longitude": 151.2339007}, {"name": "Kurmond", "locality": "Hawkesbury City Council", "state": "NSW", "post_code": 2757, "latitude": -33.551, "longitude": 150.69}, {"name": "Kurnell", "locality": "Sutherland Shire", "state": "NSW", "post_code": 2231, "latitude": -34.01159, "longitude": 151.20686}, {"name": "Kurraba Point", "locality": "North Sydney Council", "state": "NSW", "post_code": 2089, "latitude": -33.843, "longitude": 151.223}, {"name": "Kurrajong", "locality": "Hawkesbury City Council", "state": "NSW", "post_code": 2758, "latitude": -33.55, "longitude": 150.6667}, {"name": "Kurrajong Hills", "locality": "Hawkesbury City Council", "state": "NSW", "post_code": 2758, "latitude": -33.533333, "longitude": 150.65}, {"name": "Kyeemagh", "locality": "Bayside Council", "state": "NSW", "post_code": 2216, "latitude": -33.94829, "longitude": 151.15711}, {"name": "Kyle Bay", "locality": "Kogarah City Council", "state": "NSW", "post_code": 2221, "latitude": -33.9911107, "longitude": 151.1002727}, {"name": "La Perouse", "locality": "Randwick City Council", "state": "NSW", "post_code": 2036, "latitude": -33.9888, "longitude": 151.232}, {"name": "Lakemba", "locality": "Canterbury City Council", "state": "NSW", "post_code": 2195, "latitude": -33.9200417, "longitude": 151.0771497}, {"name": "Lalor Park", "locality": "City of Blacktown", "state": "NSW", "post_code": 2147, "latitude": -33.7666, "longitude": 150.9277}, {"name": "Lane Cove", "locality": "Lane Cove Municipal Council", "state": "NSW", "post_code": 2066, "latitude": -33.8148145, "longitude": 151.1663935}, {"name": "Lane Cove North", "state": "NSW", "post_code": 2066, "latitude": -33.80627330000001, "longitude": 151.1664881}, {"name": "Lane Cove West", "locality": "Lane Cove Municipal Council", "state": "NSW", "post_code": 2066, "latitude": -33.811478, "longitude": 151.1527422}, {"name": "Lansdowne", "locality": "Greater Taree City Council", "state": "NSW", "post_code": 2430, "latitude": -31.783056, "longitude": 152.534444}, {"name": "Lansvale", "locality": "Fairfield City Council", "state": "NSW", "post_code": 2166, "latitude": -33.906913, "longitude": 150.9685549}, {"name": "Laughtondale", "locality": "The Council of the Shire of Hornsby", "state": "NSW", "post_code": 2775, "latitude": -33.43, "longitude": 151.029}, {"name": "Lavender Bay", "locality": "North Sydney Council", "state": "NSW", "post_code": 2060, "latitude": -33.8435728, "longitude": 151.2069658}, {"name": "Leets Vale", "state": "NSW", "post_code": 2775, "latitude": -33.432, "longitude": 150.951}, {"name": "Leichhardt", "locality": "Inner West Council", "state": "NSW", "post_code": 2040, "latitude": -33.8837222, "longitude": 151.157028}, {"name": "Len Waters Estate", "locality": "City of Liverpool", "state": "NSW", "post_code": 2171, "latitude": -33.9143238, "longitude": 150.853667}, {"name": "Leonay", "locality": "Penrith City Council", "state": "NSW", "post_code": 2750, "latitude": -33.76506, "longitude": 150.64568}, {"name": "Leppington", "state": "NSW", "post_code": 2179, "latitude": -33.965, "longitude": 150.801}, {"name": "Lethbridge Park", "locality": "City of Blacktown", "state": "NSW", "post_code": 2770, "latitude": -33.7374293, "longitude": 150.8013419}, {"name": "Leumeah", "locality": "Campbelltown City Council", "state": "NSW", "post_code": 2560, "latitude": -34.05546, "longitude": 150.83328}, {"name": "Lewisham", "locality": "Inner West Council", "state": "NSW", "post_code": 2049, "latitude": -33.8949, "longitude": 151.144415}, {"name": "Liberty Grove", "locality": "City of Canada Bay Council", "state": "NSW", "post_code": 2138, "latitude": -33.841667, "longitude": 151.083611}, {"name": "Lidcombe", "state": "NSW", "post_code": 2141, "latitude": -33.865214, "longitude": 151.0435043}, {"name": "Lilli Pilli", "locality": "Sutherland Shire", "state": "NSW", "post_code": 2229, "latitude": -34.068333, "longitude": 151.115833}, {"name": "Lilyfield", "locality": "Inner West Council", "state": "NSW", "post_code": 2040, "latitude": -33.874345, "longitude": 151.164693}, {"name": "Lindfield", "locality": "Ku-ring-gai Council", "state": "NSW", "post_code": 2070, "latitude": -33.7787851, "longitude": 151.1693413}, {"name": "Linley Point", "locality": "Lane Cove Municipal Council", "state": "NSW", "post_code": 2066, "latitude": -33.8274222, "longitude": 151.1497868}, {"name": "Little Bay", "locality": "Randwick City Council", "state": "NSW", "post_code": 2036, "latitude": -33.98054, "longitude": 151.24301}, {"name": "Liverpool", "locality": "City of Liverpool", "state": "NSW", "post_code": 2170, "latitude": -33.9285567, "longitude": 150.9179595}, {"name": "Llandilo", "locality": "Penrith City Council", "state": "NSW", "post_code": 2747, "latitude": -33.7061, "longitude": 150.7453}, {"name": "Loftus", "locality": "Sutherland Shire", "state": "NSW", "post_code": 2232, "latitude": -34.0465, "longitude": 151.0471}, {"name": "Londonderry", "locality": "Penrith City Council", "state": "NSW", "post_code": 2753, "latitude": -33.6485, "longitude": 150.7355}, {"name": "Long Point", "locality": "Campbelltown City Council", "state": "NSW", "post_code": 2564, "latitude": -34.012, "longitude": 150.897}, {"name": "Longueville", "locality": "Lane Cove Municipal Council", "state": "NSW", "post_code": 2066, "latitude": -33.83309, "longitude": 151.16494}, {"name": "Lovett Bay", "locality": "Northern Beaches Council", "state": "NSW", "post_code": 2105, "latitude": -33.6296855, "longitude": 151.2816573}, {"name": "Lower Portland", "state": "NSW", "post_code": 2756, "latitude": -33.442, "longitude": 150.879}, {"name": "Lucas Heights", "locality": "Sutherland Shire", "state": "NSW", "post_code": 2234, "latitude": -34.049, "longitude": 150.975}, {"name": "Luddenham", "state": "NSW", "post_code": 2745, "latitude": -33.8807, "longitude": 150.7146}, {"name": "Lugarno", "locality": "Hurstville City Council", "state": "NSW", "post_code": 2210, "latitude": -33.98469, "longitude": 151.04352}, {"name": "Lurnea", "locality": "City of Liverpool", "state": "NSW", "post_code": 2170, "latitude": -33.9326, "longitude": 150.900826}, {"name": "Macquarie Fields", "locality": "Campbelltown City Council", "state": "NSW", "post_code": 2564, "latitude": -33.99434, "longitude": 150.88757}, {"name": "Macquarie Links", "locality": "Campbelltown City Council", "state": "NSW", "post_code": 2565, "latitude": -33.982, "longitude": 150.874}, {"name": "Macquarie Park", "locality": "City of Ryde", "state": "NSW", "post_code": 2113, "latitude": -33.7810467, "longitude": 151.122968}, {"name": "Maianbar", "locality": "Sutherland Shire", "state": "NSW", "post_code": 2230, "latitude": -34.0764794, "longitude": 151.1272123}, {"name": "Malabar", "locality": "Randwick City Council", "state": "NSW", "post_code": 2036, "latitude": -33.9656, "longitude": 151.2487}, {"name": "Manly", "state": "NSW", "post_code": 2095, "latitude": -33.8060158, "longitude": 151.2947775}, {"name": "Manly Vale", "locality": "Northern Beaches Council", "state": "NSW", "post_code": 2093, "latitude": -33.783, "longitude": 151.2622}, {"name": "Maraylya", "state": "NSW", "post_code": 2765, "latitude": -33.59775, "longitude": 150.91609}, {"name": "Marayong", "locality": "City of Blacktown", "state": "NSW", "post_code": 2148, "latitude": -33.7495256, "longitude": 150.8929227}, {"name": "Maroota", "state": "NSW", "post_code": 2756, "latitude": -33.4540456, "longitude": 150.9889238}, {"name": "Maroubra", "locality": "Randwick City Council", "state": "NSW", "post_code": 2035, "latitude": -33.9495, "longitude": 151.2437}, {"name": "Marrickville", "locality": "Inner West Council", "state": "NSW", "post_code": 2204, "latitude": -33.908667, "longitude": 151.1524142}, {"name": "Marsden Park", "locality": "City of Blacktown", "state": "NSW", "post_code": 2765, "latitude": -33.68908, "longitude": 150.80285}, {"name": "Marsfield", "locality": "City of Ryde", "state": "NSW", "post_code": 2122, "latitude": -33.7800906, "longitude": 151.1029137}, {"name": "Mascot", "state": "NSW", "post_code": 2020, "latitude": -33.9296324, "longitude": 151.1946223}, {"name": "Matraville", "locality": "Randwick City Council", "state": "NSW", "post_code": 2036, "latitude": -33.9613, "longitude": 151.2315}, {"name": "Mays Hill", "locality": "Cumberland Council", "state": "NSW", "post_code": 2145, "latitude": -33.8206367, "longitude": 150.9881962}, {"name": "McCarrs Creek", "locality": "Northern Beaches Council", "state": "NSW", "post_code": 2105, "latitude": -33.643, "longitude": 151.277}, {"name": "McGraths Hill", "locality": "Hawkesbury City Council", "state": "NSW", "post_code": 2756, "latitude": -33.61939, "longitude": 150.84304}, {"name": "McMahons Point", "locality": "North Sydney Council", "state": "NSW", "post_code": 2060, "latitude": -33.84524, "longitude": 151.20433}, {"name": "Meadowbank", "locality": "City of Ryde", "state": "NSW", "post_code": 2114, "latitude": -33.81692, "longitude": 151.08333}, {"name": "Melrose Park", "state": "NSW", "post_code": 2114, "latitude": -33.8145781, "longitude": 151.0718821}, {"name": "Menai", "locality": "Sutherland Shire", "state": "NSW", "post_code": 2234, "latitude": -34.0118, "longitude": 151.0089}, {"name": "Menangle Park", "locality": "Campbelltown City Council", "state": "NSW", "post_code": 2563, "latitude": -34.102939, "longitude": 150.742442}, {"name": "Merrylands", "locality": "Cumberland Council", "state": "NSW", "post_code": 2160, "latitude": -33.835802, "longitude": 150.9865196}, {"name": "Merrylands West", "locality": "Cumberland Council", "state": "NSW", "post_code": 2160, "latitude": -33.83742, "longitude": 150.96168}, {"name": "Middle Cove", "locality": "City of Willoughby", "state": "NSW", "post_code": 2068, "latitude": -33.7938, "longitude": 151.2086}, {"name": "Middle Dural", "state": "NSW", "post_code": 2158, "latitude": -33.6408817, "longitude": 151.0180269}, {"name": "Middleton Grange", "locality": "City of Liverpool", "state": "NSW", "post_code": 2171, "latitude": -33.915, "longitude": 150.842}, {"name": "Miller", "locality": "City of Liverpool", "state": "NSW", "post_code": 2168, "latitude": -33.9268, "longitude": 150.8724}, {"name": "Millers Point", "state": "NSW", "post_code": 2000, "latitude": -33.86085, "longitude": 151.20281}, {"name": "Milperra", "locality": "Bankstown City Council", "state": "NSW", "post_code": 2214, "latitude": -33.9370869, "longitude": 150.9827465}, {"name": "Milsons Passage", "locality": "The Council of the Shire of Hornsby", "state": "NSW", "post_code": 2083, "latitude": -33.517, "longitude": 151.176}, {"name": "Milsons Point", "locality": "North Sydney Council", "state": "NSW", "post_code": 2061, "latitude": -33.84765, "longitude": 151.21201}, {"name": "Minchinbury", "locality": "City of Blacktown", "state": "NSW", "post_code": 2770, "latitude": -33.7896243, "longitude": 150.8369469}, {"name": "Minto", "locality": "Campbelltown City Council", "state": "NSW", "post_code": 2566, "latitude": -34.02646, "longitude": 150.8507}, {"name": "Minto Heights", "locality": "Campbelltown City Council", "state": "NSW", "post_code": 2566, "latitude": -34.031, "longitude": 150.8743}, {"name": "Miranda", "locality": "Sutherland Shire", "state": "NSW", "post_code": 2228, "latitude": -34.0299364, "longitude": 151.1055499}, {"name": "Mona Vale", "locality": "Northern Beaches Council", "state": "NSW", "post_code": 2103, "latitude": -33.67596, "longitude": 151.30653}, {"name": "Monterey", "locality": "Bayside Council", "state": "NSW", "post_code": 2217, "latitude": -33.9738, "longitude": 151.1479}, {"name": "Moore Park", "locality": "Council of the City of Sydney", "state": "NSW", "post_code": 2021, "latitude": -33.8952578, "longitude": 151.2215296}, {"name": "Moorebank", "locality": "City of Liverpool", "state": "NSW", "post_code": 2170, "latitude": -33.9397082, "longitude": 150.9249864}, {"name": "Morning Bay", "locality": "Northern Beaches Council", "state": "NSW", "post_code": 2105, "latitude": -33.627, "longitude": 151.287}, {"name": "Mortdale", "state": "NSW", "post_code": 2223, "latitude": -33.96932, "longitude": 151.06969}, {"name": "Mortlake", "locality": "City of Canada Bay Council", "state": "NSW", "post_code": 2137, "latitude": -33.8405772, "longitude": 151.1060971}, {"name": "Mosman", "state": "NSW", "post_code": 2088, "latitude": -33.829075, "longitude": 151.24409}, {"name": "Mount Annan", "state": "NSW", "post_code": 2567, "latitude": -34.065, "longitude": 150.76}, {"name": "Mount Colah", "locality": "The Council of the Shire of Hornsby", "state": "NSW", "post_code": 2079, "latitude": -33.670759, "longitude": 151.1152582}, {"name": "Mount Druitt", "locality": "City of Blacktown", "state": "NSW", "post_code": 2770, "latitude": -33.7722, "longitude": 150.8194}, {"name": "Mount Kuring-Gai", "locality": "The Council of the Shire of Hornsby", "state": "NSW", "post_code": 2080, "latitude": -33.6414763, "longitude": 151.1308651}, {"name": "Mount Lewis", "locality": "Bankstown City Council", "state": "NSW", "post_code": 2190, "latitude": -33.915, "longitude": 151.051}, {"name": "Mount Pritchard", "state": "NSW", "post_code": 2170, "latitude": -33.898, "longitude": 150.901}, {"name": "Mount Vernon", "locality": "Penrith City Council", "state": "NSW", "post_code": 2178, "latitude": -33.857, "longitude": 150.81}, {"name": "Mulgoa", "locality": "Penrith City Council", "state": "NSW", "post_code": 2745, "latitude": -33.8461, "longitude": 150.6525}, {"name": "Mulgrave", "locality": "Hawkesbury City Council", "state": "NSW", "post_code": 2756, "latitude": -33.615, "longitude": 150.828}, {"name": "Narellan Vale", "locality": "Camden Council", "state": "NSW", "post_code": 2567, "latitude": -34.0504, "longitude": 150.7483}, {"name": "Naremburn", "locality": "City of Willoughby", "state": "NSW", "post_code": 2065, "latitude": -33.8177311, "longitude": 151.2011183}, {"name": "Narrabeen", "locality": "Northern Beaches Council", "state": "NSW", "post_code": 2101, "latitude": -33.7231, "longitude": 151.2952}, {"name": "Narraweena", "locality": "Northern Beaches Council", "state": "NSW", "post_code": 2099, "latitude": -33.748611, "longitude": 151.267778}, {"name": "Narwee", "state": "NSW", "post_code": 2209, "latitude": -33.947329, "longitude": 151.0707329}, {"name": "Nelson", "locality": "The Hills Shire", "state": "NSW", "post_code": 2765, "latitude": -33.6457, "longitude": 150.922}, {"name": "Neutral Bay", "locality": "North Sydney Council", "state": "NSW", "post_code": 2089, "latitude": -33.8339383, "longitude": 151.2188459}, {"name": "Newington", "locality": "City of Parramatta Council", "state": "NSW", "post_code": 2127, "latitude": -33.839, "longitude": 151.055}, {"name": "Newport", "locality": "Northern Beaches Council", "state": "NSW", "post_code": 2106, "latitude": -33.6564, "longitude": 151.3137}, {"name": "Newtown", "state": "NSW", "post_code": 2042, "latitude": -33.8978149, "longitude": 151.1785003}, {"name": "Normanhurst", "locality": "The Council of the Shire of Hornsby", "state": "NSW", "post_code": 2076, "latitude": -33.7245321, "longitude": 151.0970108}, {"name": "North Balgowlah", "locality": "Northern Beaches Council", "state": "NSW", "post_code": 2093, "latitude": -33.785604, "longitude": 151.2495903}, {"name": "North Bondi", "locality": "Waverley Council", "state": "NSW", "post_code": 2026, "latitude": -33.8879, "longitude": 151.2808}, {"name": "North Curl Curl", "locality": "Northern Beaches Council", "state": "NSW", "post_code": 2099, "latitude": -33.7645, "longitude": 151.2973}, {"name": "North Epping", "locality": "The Council of the Shire of Hornsby", "state": "NSW", "post_code": 2121, "latitude": -33.7623, "longitude": 151.101}, {"name": "North Kellyville", "locality": "The Hills Shire", "state": "NSW", "post_code": 2155, "latitude": -33.6852445, "longitude": 150.9525664}, {"name": "North Manly", "locality": "Northern Beaches Council", "state": "NSW", "post_code": 2100, "latitude": -33.7754, "longitude": 151.2689}, {"name": "North Narrabeen", "locality": "Northern Beaches Council", "state": "NSW", "post_code": 2101, "latitude": -33.7065, "longitude": 151.2884}, {"name": "North Parramatta", "state": "NSW", "post_code": 2151, "latitude": -33.800281, "longitude": 151.0042445}, {"name": "North Richmond", "locality": "Hawkesbury City Council", "state": "NSW", "post_code": 2754, "latitude": -33.5817778, "longitude": 150.7150959}, {"name": "North Rocks", "locality": "The Hills Shire", "state": "NSW", "post_code": 2151, "latitude": -33.7750537, "longitude": 151.0238278}, {"name": "North Ryde", "locality": "City of Ryde", "state": "NSW", "post_code": 2113, "latitude": -33.7931778, "longitude": 151.1197879}, {"name": "North St Ives", "locality": "Ku-ring-gai Council", "state": "NSW", "post_code": 2075, "latitude": -33.72136, "longitude": 151.16844}, {"name": "North St Marys", "locality": "Penrith City Council", "state": "NSW", "post_code": 2760, "latitude": -33.749, "longitude": 150.782}, {"name": "North Strathfield", "locality": "City of Canada Bay Council", "state": "NSW", "post_code": 2137, "latitude": -33.8604, "longitude": 151.08856}, {"name": "North Sydney", "locality": "North Sydney Council", "state": "NSW", "post_code": 2060, "latitude": -33.83965, "longitude": 151.20541}, {"name": "North Turramurra", "locality": "Ku-ring-gai Council", "state": "NSW", "post_code": 2074, "latitude": -33.704927, "longitude": 151.1490162}, {"name": "North Willoughby", "locality": "City of Willoughby", "state": "NSW", "post_code": 2068, "latitude": -33.795, "longitude": 151.204}, {"name": "North Wahroonga", "locality": "Ku-ring-gai Council", "state": "NSW", "post_code": 2076, "latitude": -33.701, "longitude": 151.126}, {"name": "Northbridge", "locality": "City of Willoughby", "state": "NSW", "post_code": 2063, "latitude": -33.81325, "longitude": 151.21717}, {"name": "Northmead", "state": "NSW", "post_code": 2152, "latitude": -33.78974, "longitude": 150.9921094}, {"name": "Northwood", "locality": "Lane Cove Municipal Council", "state": "NSW", "post_code": 2066, "latitude": -33.82813000000001, "longitude": 151.17619}, {"name": "Norwest", "locality": "The Hills Shire", "state": "NSW", "post_code": 2153, "latitude": -33.7316522, "longitude": 150.9665906}, {"name": "Oakhurst", "locality": "City of Blacktown", "state": "NSW", "post_code": 2761, "latitude": -33.7385688, "longitude": 150.8359742}, {"name": "Oakville", "locality": "Hawkesbury City Council", "state": "NSW", "post_code": 2765, "latitude": -33.6222, "longitude": 150.8669}, {"name": "Oatlands", "state": "NSW", "post_code": 2117, "latitude": -33.7963384, "longitude": 151.0263232}, {"name": "Oatley", "state": "NSW", "post_code": 2223, "latitude": -33.98118, "longitude": 151.07479}, {"name": "Old Guildford", "locality": "Fairfield City Council", "state": "NSW", "post_code": 2161, "latitude": -33.86577, "longitude": 150.98346}, {"name": "Old Toongabbie", "locality": "City of Parramatta Council", "state": "NSW", "post_code": 2146, "latitude": -33.787, "longitude": 150.966}, {"name": "Oran Park", "locality": "Camden Council", "state": "NSW", "post_code": 2570, "latitude": -34.003, "longitude": 150.743}, {"name": "Orchard Hills", "locality": "Penrith City Council", "state": "NSW", "post_code": 2748, "latitude": -33.7923295, "longitude": 150.7330734}, {"name": "Oxford Falls", "locality": "Northern Beaches Council", "state": "NSW", "post_code": 2100, "latitude": -33.7352, "longitude": 151.2469}, {"name": "Oxley Park", "locality": "Penrith City Council", "state": "NSW", "post_code": 2760, "latitude": -33.7709, "longitude": 150.7934}, {"name": "Oyster Bay", "locality": "Sutherland Shire", "state": "NSW", "post_code": 2225, "latitude": -34.00754, "longitude": 151.07514}, {"name": "Paddington", "state": "NSW", "post_code": 2021, "latitude": -33.8850215, "longitude": 151.2262353}, {"name": "Padstow", "locality": "Bankstown City Council", "state": "NSW", "post_code": 2211, "latitude": -33.9504502, "longitude": 151.0309}, {"name": "Padstow Heights", "locality": "Bankstown City Council", "state": "NSW", "post_code": 2211, "latitude": -33.973, "longitude": 151.035}, {"name": "Pagewood", "locality": "Bayside Council", "state": "NSW", "post_code": 2035, "latitude": -33.9406443, "longitude": 151.2154524}, {"name": "Palm Beach", "locality": "Northern Beaches Council", "state": "NSW", "post_code": 2108, "latitude": -33.601111, "longitude": 151.321667}, {"name": "Panania", "locality": "Bankstown City Council", "state": "NSW", "post_code": 2213, "latitude": -33.95793, "longitude": 151.002}, {"name": "Parklea", "locality": "City of Blacktown", "state": "NSW", "post_code": 2768, "latitude": -33.7291, "longitude": 150.919}, {"name": "Parramatta", "state": "NSW", "post_code": 2150, "latitude": -33.8135571, "longitude": 151.003407}, {"name": "Peakhurst", "locality": "Hurstville City Council", "state": "NSW", "post_code": 2210, "latitude": -33.9654, "longitude": 151.0502}, {"name": "Peakhurst Heights", "locality": "Hurstville City Council", "state": "NSW", "post_code": 2210, "latitude": -33.981667, "longitude": 151.051111}, {"name": "Pemulwuy", "locality": "Cumberland Council", "state": "NSW", "post_code": 2145, "latitude": -33.817, "longitude": 150.926}, {"name": "Pendle Hill", "state": "NSW", "post_code": 2145, "latitude": -33.80739, "longitude": 150.95518}, {"name": "Pennant Hills", "locality": "The Council of the Shire of Hornsby", "state": "NSW", "post_code": 2120, "latitude": -33.738881, "longitude": 151.0723841}, {"name": "Penrith", "locality": "Penrith City Council", "state": "NSW", "post_code": 2750, "latitude": -33.7506759, "longitude": 150.687674}, {"name": "Penshurst", "state": "NSW", "post_code": 2222, "latitude": -33.96334700000001, "longitude": 151.0867644}, {"name": "Petersham", "locality": "Inner West Council", "state": "NSW", "post_code": 2049, "latitude": -33.8962174, "longitude": 151.1541497}, {"name": "Phillip Bay", "locality": "Randwick City Council", "state": "NSW", "post_code": 2036, "latitude": -33.9781348, "longitude": 151.2321019}, {"name": "Picnic Point", "locality": "Bankstown City Council", "state": "NSW", "post_code": 2213, "latitude": -33.96929, "longitude": 151.00624}, {"name": "Pitt Town", "locality": "Hawkesbury City Council", "state": "NSW", "post_code": 2756, "latitude": -33.5816502, "longitude": 150.8667511}, {"name": "Pitt Town Bottoms", "locality": "Hawkesbury City Council", "state": "NSW", "post_code": 2756, "latitude": -33.5840997, "longitude": 150.8463985}, {"name": "Pleasure Point", "locality": "City of Liverpool", "state": "NSW", "post_code": 2172, "latitude": -33.96776, "longitude": 150.978}, {"name": "Plumpton", "locality": "City of Blacktown", "state": "NSW", "post_code": 2761, "latitude": -33.7514593, "longitude": 150.8412545}, {"name": "Point Piper", "locality": "Woollahra Municipal Council", "state": "NSW", "post_code": 2027, "latitude": -33.87045, "longitude": 151.25097}, {"name": "Port Botany", "locality": "Randwick City Council", "state": "NSW", "post_code": 2036, "latitude": -33.976, "longitude": 151.218}, {"name": "Port Hacking", "locality": "Sutherland Shire", "state": "NSW", "post_code": 2229, "latitude": -34.069, "longitude": 151.1227}, {"name": "Potts Hill", "locality": "Bankstown City Council", "state": "NSW", "post_code": 2143, "latitude": -33.89, "longitude": 151.03}, {"name": "Potts Point", "locality": "Council of the City of Sydney", "state": "NSW", "post_code": 2011, "latitude": -33.86795, "longitude": 151.22411}, {"name": "Prairiewood", "locality": "Fairfield City Council", "state": "NSW", "post_code": 2176, "latitude": -33.861, "longitude": 150.9048}, {"name": "Prestons", "locality": "City of Liverpool", "state": "NSW", "post_code": 2170, "latitude": -33.9422412, "longitude": 150.8673973}, {"name": "Prospect", "locality": "City of Blacktown", "state": "NSW", "post_code": 2148, "latitude": -33.7981153, "longitude": 150.9176528}, {"name": "Punchbowl", "state": "NSW", "post_code": 2196, "latitude": -33.9324629, "longitude": 151.049487}, {"name": "Putney", "locality": "City of Ryde", "state": "NSW", "post_code": 2112, "latitude": -33.827, "longitude": 151.106}, {"name": "Pymble", "locality": "Ku-ring-gai Council", "state": "NSW", "post_code": 2073, "latitude": -33.7456508, "longitude": 151.1431794}, {"name": "Pyrmont", "locality": "Council of the City of Sydney", "state": "NSW", "post_code": 2009, "latitude": -33.8737167, "longitude": 151.1956918}, {"name": "Quakers Hill", "locality": "City of Blacktown", "state": "NSW", "post_code": 2763, "latitude": -33.7241591, "longitude": 150.8889765}, {"name": "Queens Park", "locality": "Waverley Council", "state": "NSW", "post_code": 2022, "latitude": -33.901, "longitude": 151.248}, {"name": "Queenscliff", "locality": "Northern Beaches Council", "state": "NSW", "post_code": 2096, "latitude": -33.7825, "longitude": 151.284722}, {"name": "Raby", "locality": "Campbelltown City Council", "state": "NSW", "post_code": 2566, "latitude": -34.0209207, "longitude": 150.8173282}, {"name": "Ramsgate", "state": "NSW", "post_code": 2217, "latitude": -33.98194, "longitude": 151.14007}, {"name": "Ramsgate Beach", "locality": "Bayside Council", "state": "NSW", "post_code": 2217, "latitude": -33.982, "longitude": 151.148}, {"name": "Randwick", "locality": "Randwick City Council", "state": "NSW", "post_code": 2031, "latitude": -33.9131545, "longitude": 151.2420352}, {"name": "Redfern", "locality": "Council of the City of Sydney", "state": "NSW", "post_code": 2016, "latitude": -33.892963, "longitude": 151.2053979}, {"name": "Regents Park", "state": "NSW", "post_code": 2143, "latitude": -33.88572, "longitude": 151.02833}, {"name": "Regentville", "locality": "Penrith City Council", "state": "NSW", "post_code": 2745, "latitude": -33.7711622, "longitude": 150.6604462}, {"name": "Revesby", "locality": "Bankstown City Council", "state": "NSW", "post_code": 2212, "latitude": -33.9452471, "longitude": 151.018035}, {"name": "Revesby Heights", "locality": "Bankstown City Council", "state": "NSW", "post_code": 2212, "latitude": -33.96806, "longitude": 151.01773}, {"name": "Rhodes", "locality": "City of Canada Bay Council", "state": "NSW", "post_code": 2138, "latitude": -33.82821, "longitude": 151.08569}, {"name": "Richmond", "locality": "Hawkesbury City Council", "state": "NSW", "post_code": 2753, "latitude": -33.6, "longitude": 150.75}, {"name": "Richmond Lowlands", "locality": "Hawkesbury City Council", "state": "NSW", "post_code": 2753, "latitude": -33.5824255, "longitude": 150.7504879}, {"name": "Riverstone", "state": "NSW", "post_code": 2765, "latitude": -33.6819, "longitude": 150.8594}, {"name": "Riverview", "locality": "Lane Cove Municipal Council", "state": "NSW", "post_code": 2066, "latitude": -33.82466, "longitude": 151.1622}, {"name": "Riverwood", "state": "NSW", "post_code": 2210, "latitude": -33.95086149999999, "longitude": 151.0523782}, {"name": "Rockdale", "locality": "Bayside Council", "state": "NSW", "post_code": 2216, "latitude": -33.9529076, "longitude": 151.1375572}, {"name": "Rodd Point", "locality": "City of Canada Bay Council", "state": "NSW", "post_code": 2046, "latitude": -33.86607, "longitude": 151.14366}, {"name": "Rookwood", "locality": "Cumberland Council", "state": "NSW", "post_code": 2141, "latitude": -33.87276, "longitude": 151.05562}, {"name": "Rooty Hill", "locality": "City of Blacktown", "state": "NSW", "post_code": 2766, "latitude": -33.7715246, "longitude": 150.843841}, {"name": "Ropes Crossing", "locality": "City of Blacktown", "state": "NSW", "post_code": 2760, "latitude": -33.733, "longitude": 150.791}, {"name": "Rose Bay", "state": "NSW", "post_code": 2029, "latitude": -33.8754209, "longitude": 151.265623}, {"name": "Rosebery", "state": "NSW", "post_code": 2018, "latitude": -33.9221918, "longitude": 151.201678}, {"name": "Rosehill", "locality": "City of Parramatta Council", "state": "NSW", "post_code": 2142, "latitude": -33.8239653, "longitude": 151.0212029}, {"name": "Roselands", "locality": "Canterbury City Council", "state": "NSW", "post_code": 2196, "latitude": -33.9369131, "longitude": 151.074461}, {"name": "Rosemeadow", "locality": "Campbelltown City Council", "state": "NSW", "post_code": 2560, "latitude": -34.107, "longitude": 150.793}, {"name": "Roseville", "state": "NSW", "post_code": 2069, "latitude": -33.7842176, "longitude": 151.1894277}, {"name": "Roseville Chase", "locality": "Ku-ring-gai Council", "state": "NSW", "post_code": 2069, "latitude": -33.7755896, "longitude": 151.2000449}, {"name": "Rossmore", "state": "NSW", "post_code": 2557, "latitude": -33.9224, "longitude": 150.76964}, {"name": "Rouse Hill", "state": "NSW", "post_code": 2155, "latitude": -33.68162, "longitude": 150.91552}, {"name": "Royal National Park", "locality": "Sutherland Shire", "state": "NSW", "post_code": 2233, "latitude": -34.0751136, "longitude": 151.0558127}, {"name": "Rozelle", "locality": "Inner West Council", "state": "NSW", "post_code": 2039, "latitude": -33.8638543, "longitude": 151.1701171}, {"name": "Ruse", "locality": "Campbelltown City Council", "state": "NSW", "post_code": 2560, "latitude": -34.071, "longitude": 150.8423}, {"name": "Rushcutters Bay", "locality": "Council of the City of Sydney", "state": "NSW", "post_code": 2011, "latitude": -33.8742991, "longitude": 151.2284588}, {"name": "Russell Lea", "locality": "City of Canada Bay Council", "state": "NSW", "post_code": 2046, "latitude": -33.859471, "longitude": 151.14244}, {"name": "Rydalmere", "locality": "City of Parramatta Council", "state": "NSW", "post_code": 2116, "latitude": -33.8123245, "longitude": 151.0417591}, {"name": "Ryde", "locality": "City of Ryde", "state": "NSW", "post_code": 2112, "latitude": -33.8157466, "longitude": 151.1030164}, {"name": "Sackville", "locality": "Hawkesbury City Council", "state": "NSW", "post_code": 2756, "latitude": -33.4876359, "longitude": 150.8696588}, {"name": "Sackville North", "locality": "The Hills Shire", "state": "NSW", "post_code": 2756, "latitude": -33.481667, "longitude": 150.884722}, {"name": "Sadleir", "locality": "City of Liverpool", "state": "NSW", "post_code": 2168, "latitude": -33.9164233, "longitude": 150.8914686}, {"name": "Sandringham", "locality": "Bayside Council", "state": "NSW", "post_code": 2219, "latitude": -33.99861080000001, "longitude": 151.1395914}, {"name": "Sandy Point", "locality": "Sutherland Shire", "state": "NSW", "post_code": 2172, "latitude": -33.976, "longitude": 150.9926}, {"name": "Sans Souci", "state": "NSW", "post_code": 2219, "latitude": -33.98898, "longitude": 151.1393}, {"name": "Scheyville", "locality": "Hawkesbury City Council", "state": "NSW", "post_code": 2756, "latitude": -33.6112, "longitude": 150.88291}, {"name": "Schofields", "locality": "City of Blacktown", "state": "NSW", "post_code": 2762, "latitude": -33.7, "longitude": 150.8833}, {"name": "Scotland Island", "locality": "Northern Beaches Council", "state": "NSW", "post_code": 2105, "latitude": -33.6395909, "longitude": 151.290404}, {"name": "Seaforth", "locality": "Northern Beaches Council", "state": "NSW", "post_code": 2092, "latitude": -33.796, "longitude": 151.238}, {"name": "Sefton", "locality": "Bankstown City Council", "state": "NSW", "post_code": 2162, "latitude": -33.88836, "longitude": 151.00713}, {"name": "Seven Hills", "state": "NSW", "post_code": 2147, "latitude": -33.7779167, "longitude": 150.931946}, {"name": "Shalvey", "locality": "City of Blacktown", "state": "NSW", "post_code": 2770, "latitude": -33.7270571, "longitude": 150.8057017}, {"name": "Shanes Park", "locality": "City of Blacktown", "state": "NSW", "post_code": 2747, "latitude": -33.71118, "longitude": 150.77224}, {"name": "Silverwater", "locality": "City of Parramatta Council", "state": "NSW", "post_code": 2128, "latitude": -33.8339902, "longitude": 151.0482995}, {"name": "Singletons Mill", "locality": "The Council of the Shire of Hornsby", "state": "NSW", "post_code": 2775, "latitude": -33.4729767, "longitude": 151.0733379}, {"name": "Smeaton Grange", "locality": "Camden Council", "state": "NSW", "post_code": 2567, "latitude": -34.035, "longitude": 150.757}, {"name": "Smithfield", "state": "NSW", "post_code": 2164, "latitude": -33.8535722, "longitude": 150.9406861}, {"name": "South Coogee", "locality": "Randwick City Council", "state": "NSW", "post_code": 2034, "latitude": -33.933, "longitude": 151.259}, {"name": "South Granville", "locality": "Cumberland Council", "state": "NSW", "post_code": 2142, "latitude": -33.8577224, "longitude": 151.0107506}, {"name": "South Hurstville", "locality": "Kogarah City Council", "state": "NSW", "post_code": 2221, "latitude": -33.98, "longitude": 151.1035}, {"name": "South Maroota", "locality": "The Hills Shire", "state": "NSW", "post_code": 2756, "latitude": -33.5241, "longitude": 150.9485}, {"name": "South Penrith", "locality": "Penrith City Council", "state": "NSW", "post_code": 2750, "latitude": -33.7715054, "longitude": 150.7011034}, {"name": "South Turramurra", "locality": "Ku-ring-gai Council", "state": "NSW", "post_code": 2074, "latitude": -33.7546, "longitude": 151.113}, {"name": "South Wentworthville", "locality": "Cumberland Council", "state": "NSW", "post_code": 2145, "latitude": -33.8178167, "longitude": 150.9692855}, {"name": "South Windsor", "locality": "Hawkesbury City Council", "state": "NSW", "post_code": 2756, "latitude": -33.62535, "longitude": 150.80437}, {"name": "Spring Farm", "locality": "Camden Council", "state": "NSW", "post_code": 2570, "latitude": -34.072, "longitude": 150.718}, {"name": "St Andrews", "locality": "Campbelltown City Council", "state": "NSW", "post_code": 2566, "latitude": -34.0197745, "longitude": 150.8334745}, {"name": "St Clair", "locality": "Penrith City Council", "state": "NSW", "post_code": 2759, "latitude": -33.7987, "longitude": 150.7824}, {"name": "St Helens Park", "locality": "Campbelltown City Council", "state": "NSW", "post_code": 2560, "latitude": -34.1105, "longitude": 150.8079}, {"name": "St Ives", "locality": "Ku-ring-gai Council", "state": "NSW", "post_code": 2075, "latitude": -33.72136, "longitude": 151.16844}, {"name": "St Ives Chase", "locality": "Ku-ring-gai Council", "state": "NSW", "post_code": 2075, "latitude": -33.711, "longitude": 151.1595}, {"name": "St Johns Park", "locality": "Fairfield City Council", "state": "NSW", "post_code": 2176, "latitude": -33.8847, "longitude": 150.907}, {"name": "St Leonards", "state": "NSW", "post_code": 2065, "latitude": -33.8227402, "longitude": 151.1942171}, {"name": "St Marys", "state": "NSW", "post_code": 2760, "latitude": -33.769979, "longitude": 150.7734575}, {"name": "St Peters", "state": "NSW", "post_code": 2044, "latitude": -33.9155155, "longitude": 151.1746184}, {"name": "Stanhope Gardens", "locality": "City of Blacktown", "state": "NSW", "post_code": 2768, "latitude": -33.723, "longitude": 150.926}, {"name": "Stanmore", "locality": "Inner West Council", "state": "NSW", "post_code": 2048, "latitude": -33.8934542, "longitude": 151.1643805}, {"name": "Strathfield", "state": "NSW", "post_code": 2135, "latitude": -33.8774826, "longitude": 151.0823602}, {"name": "Strathfield South", "locality": "Strathfield Municipal Council", "state": "NSW", "post_code": 2136, "latitude": -33.8943055, "longitude": 151.0830083}, {"name": "Summer Hill", "locality": "Inner West Council", "state": "NSW", "post_code": 2130, "latitude": -33.891841, "longitude": 151.1379367}, {"name": "Surry Hills", "locality": "Council of the City of Sydney", "state": "NSW", "post_code": 2010, "latitude": -33.886111, "longitude": 151.211111}, {"name": "Sutherland", "locality": "Sutherland Shire", "state": "NSW", "post_code": 2232, "latitude": -34.0297415, "longitude": 151.059275}, {"name": "Sydenham", "locality": "Inner West Council", "state": "NSW", "post_code": 2044, "latitude": -33.9158055, "longitude": 151.1679944}, {"name": "Sydney Olympic Park", "state": "NSW", "post_code": 2127, "latitude": -33.8465088, "longitude": 151.0722137}, {"name": "Sylvania", "locality": "Sutherland Shire", "state": "NSW", "post_code": 2224, "latitude": -34.0080021, "longitude": 151.1056919}, {"name": "Sylvania Waters", "locality": "Sutherland Shire", "state": "NSW", "post_code": 2224, "latitude": -34.02318, "longitude": 151.11156}, {"name": "Tamarama", "locality": "Waverley Council", "state": "NSW", "post_code": 2026, "latitude": -33.898, "longitude": 151.268}, {"name": "Taren Point", "locality": "Sutherland Shire", "state": "NSW", "post_code": 2229, "latitude": -34.01909, "longitude": 151.12028}, {"name": "Telopea", "locality": "City of Parramatta Council", "state": "NSW", "post_code": 2117, "latitude": -33.79417, "longitude": 151.03802}, {"name": "Tempe", "locality": "Inner West Council", "state": "NSW", "post_code": 2044, "latitude": -33.925048, "longitude": 151.1604169}, {"name": "Tennyson", "locality": "Hawkesbury City Council", "state": "NSW", "post_code": 2754, "latitude": -33.536944, "longitude": 150.7375}, {"name": "Tennyson Point", "locality": "City of Ryde", "state": "NSW", "post_code": 2111, "latitude": -33.832435, "longitude": 151.116938}, {"name": "Terrey Hills", "locality": "Northern Beaches Council", "state": "NSW", "post_code": 2084, "latitude": -33.683, "longitude": 151.223}, {"name": "The Ponds", "locality": "City of Blacktown", "state": "NSW", "post_code": 2769, "latitude": -33.703, "longitude": 150.909}, {"name": "The Rocks", "locality": "Council of the City of Sydney", "state": "NSW", "post_code": 2000, "latitude": -33.85985, "longitude": 151.20901}, {"name": "The Slopes", "locality": "Hawkesbury City Council", "state": "NSW", "post_code": 2754, "latitude": -33.5328009, "longitude": 150.7069125}, {"name": "Thornleigh", "locality": "The Council of the Shire of Hornsby", "state": "NSW", "post_code": 2120, "latitude": -33.7261791, "longitude": 151.0841467}, {"name": "Toongabbie", "state": "NSW", "post_code": 2146, "latitude": -33.7841326, "longitude": 150.95429}, {"name": "Tregear", "locality": "City of Blacktown", "state": "NSW", "post_code": 2770, "latitude": -33.75, "longitude": 150.7944}, {"name": "Turramurra", "locality": "Ku-ring-gai Council", "state": "NSW", "post_code": 2074, "latitude": -33.733499, "longitude": 151.1279841}, {"name": "Turrella", "locality": "Bayside Council", "state": "NSW", "post_code": 2205, "latitude": -33.93297, "longitude": 151.14079}, {"name": "Ultimo", "locality": "Council of the City of Sydney", "state": "NSW", "post_code": 2007, "latitude": -33.88223, "longitude": 151.19696}, {"name": "Varroville", "locality": "Campbelltown City Council", "state": "NSW", "post_code": 2566, "latitude": -34.00758, "longitude": 150.8151}, {"name": "Vaucluse", "state": "NSW", "post_code": 2030, "latitude": -33.85582, "longitude": 151.2712}, {"name": "Villawood", "state": "NSW", "post_code": 2163, "latitude": -33.881495, "longitude": 150.9821162}, {"name": "Vineyard", "state": "NSW", "post_code": 2765, "latitude": -33.65021, "longitude": 150.85619}, {"name": "Voyager Point", "locality": "City of Liverpool", "state": "NSW", "post_code": 2172, "latitude": -33.959, "longitude": 150.979}, {"name": "Wahroonga", "state": "NSW", "post_code": 2076, "latitude": -33.7186308, "longitude": 151.1103686}, {"name": "Waitara", "locality": "The Council of the Shire of Hornsby", "state": "NSW", "post_code": 2077, "latitude": -33.7083472, "longitude": 151.1068252}, {"name": "Wakeley", "locality": "Fairfield City Council", "state": "NSW", "post_code": 2176, "latitude": -33.8762, "longitude": 150.9123}, {"name": "Wallacia", "state": "NSW", "post_code": 2745, "latitude": -33.865, "longitude": 150.64}, {"name": "Wareemba", "locality": "City of Canada Bay Council", "state": "NSW", "post_code": 2046, "latitude": -33.8574937, "longitude": 151.1323094}, {"name": "Warrawee", "locality": "Ku-ring-gai Council", "state": "NSW", "post_code": 2074, "latitude": -33.7289366, "longitude": 151.1218346}, {"name": "Warriewood", "locality": "Northern Beaches Council", "state": "NSW", "post_code": 2102, "latitude": -33.69404, "longitude": 151.30093}, {"name": "Warwick Farm", "locality": "City of Liverpool", "state": "NSW", "post_code": 2170, "latitude": -33.911343, "longitude": 150.9381637}, {"name": "Waterfall", "locality": "Sutherland Shire", "state": "NSW", "post_code": 2233, "latitude": -34.1424139, "longitude": 150.9918338}, {"name": "Waterloo", "locality": "Council of the City of Sydney", "state": "NSW", "post_code": 2017, "latitude": -33.9002604, "longitude": 151.2061803}, {"name": "Watsons Bay", "locality": "Woollahra Municipal Council", "state": "NSW", "post_code": 2030, "latitude": -33.8398183, "longitude": 151.2816573}, {"name": "Wattle Grove", "locality": "City of Liverpool", "state": "NSW", "post_code": 2173, "latitude": -33.9492164, "longitude": 150.9424079}, {"name": "Waverley", "locality": "Waverley Council", "state": "NSW", "post_code": 2024, "latitude": -33.899693, "longitude": 151.2554202}, {"name": "Waverton", "locality": "North Sydney Council", "state": "NSW", "post_code": 2060, "latitude": -33.84016, "longitude": 151.19543}, {"name": "Wedderburn", "locality": "Campbelltown City Council", "state": "NSW", "post_code": 2560, "latitude": -34.12612, "longitude": 150.81789}, {"name": "Wentworth Point", "locality": "City of Parramatta Council", "state": "NSW", "post_code": 2127, "latitude": -33.828026, "longitude": 151.0769775}, {"name": "Wentworthville", "state": "NSW", "post_code": 2145, "latitude": -33.8059112, "longitude": 150.9701895}, {"name": "Werrington", "locality": "Penrith City Council", "state": "NSW", "post_code": 2747, "latitude": -33.75943, "longitude": 150.74708}, {"name": "Werrington County", "locality": "Penrith City Council", "state": "NSW", "post_code": 2747, "latitude": -33.7478023, "longitude": 150.7475824}, {"name": "Werrington Downs", "locality": "Penrith City Council", "state": "NSW", "post_code": 2747, "latitude": -33.73910000000001, "longitude": 150.7273}, {"name": "West Hoxton", "locality": "City of Liverpool", "state": "NSW", "post_code": 2171, "latitude": -33.93569, "longitude": 150.8308}, {"name": "West Killara", "locality": "Ku-ring-gai Council", "state": "NSW", "post_code": 2071, "latitude": -33.76864, "longitude": 151.16347}, {"name": "West Lindfield", "locality": "Ku-ring-gai Council", "state": "NSW", "post_code": 2070, "latitude": -33.7816232, "longitude": 151.1490935}, {"name": "West Pennant Hills", "state": "NSW", "post_code": 2125, "latitude": -33.7529959, "longitude": 151.0257317}, {"name": "West Pymble", "locality": "Ku-ring-gai Council", "state": "NSW", "post_code": 2073, "latitude": -33.7619959, "longitude": 151.1280668}, {"name": "West Ryde", "locality": "City of Ryde", "state": "NSW", "post_code": 2114, "latitude": -33.8067672, "longitude": 151.0824602}, {"name": "Westleigh", "locality": "The Council of the Shire of Hornsby", "state": "NSW", "post_code": 2120, "latitude": -33.72299, "longitude": 151.07064}, {"name": "Westmead", "state": "NSW", "post_code": 2145, "latitude": -33.8085661, "longitude": 150.9869597}, {"name": "Wetherill Park", "locality": "Fairfield City Council", "state": "NSW", "post_code": 2164, "latitude": -33.84975000000001, "longitude": 150.91101}, {"name": "Whalan", "locality": "City of Blacktown", "state": "NSW", "post_code": 2770, "latitude": -33.7583, "longitude": 150.8083}, {"name": "Whale Beach", "locality": "Northern Beaches Council", "state": "NSW", "post_code": 2107, "latitude": -33.6131448, "longitude": 151.3304989}, {"name": "Wheeler Heights", "locality": "Northern Beaches Council", "state": "NSW", "post_code": 2097, "latitude": -33.7315, "longitude": 151.28016}, {"name": "Wilberforce", "locality": "Hawkesbury City Council", "state": "NSW", "post_code": 2756, "latitude": -33.55944, "longitude": 150.84055}, {"name": "Wiley Park", "locality": "Canterbury City Council", "state": "NSW", "post_code": 2195, "latitude": -33.9228671, "longitude": 151.0683887}, {"name": "Willmot", "locality": "City of Blacktown", "state": "NSW", "post_code": 2770, "latitude": -33.7254, "longitude": 150.79238}, {"name": "Willoughby", "locality": "City of Willoughby", "state": "NSW", "post_code": 2068, "latitude": -33.8071059, "longitude": 151.1993737}, {"name": "Willoughby East", "locality": "City of Willoughby", "state": "NSW", "post_code": 2068, "latitude": -33.799, "longitude": 151.206}, {"name": "Windsor", "locality": "Hawkesbury City Council", "state": "NSW", "post_code": 2756, "latitude": -33.615, "longitude": 150.817222}, {"name": "Windsor Downs", "locality": "Hawkesbury City Council", "state": "NSW", "post_code": 2756, "latitude": -33.657, "longitude": 150.81}, {"name": "Winston Hills", "state": "NSW", "post_code": 2153, "latitude": -33.7773471, "longitude": 150.9745309}, {"name": "Wisemans Ferry", "state": "NSW", "post_code": 2775, "latitude": -33.381944, "longitude": 150.985}, {"name": "Wolli Creek", "locality": "Bayside Council", "state": "NSW", "post_code": 2205, "latitude": -33.9299813, "longitude": 151.1534281}, {"name": "Wollstonecraft", "locality": "North Sydney Council", "state": "NSW", "post_code": 2065, "latitude": -33.83356, "longitude": 151.19128}, {"name": "Woodbine", "locality": "Campbelltown City Council", "state": "NSW", "post_code": 2560, "latitude": -34.0494108, "longitude": 150.8196748}, {"name": "Woodcroft", "locality": "City of Blacktown", "state": "NSW", "post_code": 2767, "latitude": -33.759, "longitude": 150.878}, {"name": "Woodpark", "locality": "Cumberland Council", "state": "NSW", "post_code": 2164, "latitude": -33.84182699999999, "longitude": 150.962577}, {"name": "Woollahra", "locality": "Woollahra Municipal Council", "state": "NSW", "post_code": 2025, "latitude": -33.8864746, "longitude": 151.2422139}, {"name": "Woolloomooloo", "state": "NSW", "post_code": 2011, "latitude": -33.8704, "longitude": 151.2223}, {"name": "Woolooware", "locality": "Sutherland Shire", "state": "NSW", "post_code": 2230, "latitude": -34.04788, "longitude": 151.14113}, {"name": "Woolwich", "locality": "The Council of the Municipality of Hunters Hill", "state": "NSW", "post_code": 2110, "latitude": -33.8417, "longitude": 151.16968}, {"name": "Woronora", "locality": "Sutherland Shire", "state": "NSW", "post_code": 2232, "latitude": -34.02772, "longitude": 151.04152}, {"name": "Woronora Heights", "locality": "Sutherland Shire", "state": "NSW", "post_code": 2233, "latitude": -34.030434, "longitude": 151.030555}, {"name": "Yagoona", "locality": "Bankstown City Council", "state": "NSW", "post_code": 2199, "latitude": -33.9073112, "longitude": 151.0204821}, {"name": "Yarramundi", "locality": "Hawkesbury City Council", "state": "NSW", "post_code": 2753, "latitude": -33.6222, "longitude": 150.6709}, {"name": "Yarrawarrah", "locality": "Sutherland Shire", "state": "NSW", "post_code": 2233, "latitude": -34.0552, "longitude": 151.0321}, {"name": "Yennora", "state": "NSW", "post_code": 2161, "latitude": -33.8627, "longitude": 150.966}, {"name": "Yowie Bay", "locality": "Sutherland Shire", "state": "NSW", "post_code": 2228, "latitude": -34.04977, "longitude": 151.10334}, {"name": "Zetland", "locality": "Council of the City of Sydney", "state": "NSW", "post_code": 2017, "latitude": -33.908, "longitude": 151.2105}]